stop_id,stop_code,stop_name,stop_desc,stop_lat,stop_lon,zone_id,stop_url,location_type,platform_code
0002,0002,Long Beach Blvd & 8th NE,,33.776887,-118.18922,,,0,
0004,0004,Long Beach Blvd & 10th NE,,33.779377,-118.189199,,,0,
0005,0005,Long Beach Blvd & Anaheim NE,,33.783125,-118.189196,,,0,
0006,0006,Long Beach Blvd & 16th NE,,33.787367,-118.189157,,,0,
0008,0008,PCH & Locust NE,,33.789935,-118.19095,,,0,
0009,0009,PCH & Pacific NW,,33.789914,-118.194307,,,0,
0011,0011,PCH & Magnolia NW,,33.789962,-118.198496,,,0,
0012,0012,PCH & Maine NW,,33.789952,-118.201007,,,0,
0013,0013,Harbor & PCH NE,,33.790258,-118.210417,,,0,
0014,0014,Harbor & 19th NE,,33.791851,-118.210431,,,0,
0015,0015,Easy & 20th NE,,33.793663,-118.209955,,,0,
0016,0016,Easy & 21st NE,,33.795487,-118.210002,,,0,
0017,0017,Easy & Hill NE,,33.797219,-118.20995,,,0,
0018,0018,Easy & 23rd NE,,33.799081,-118.210001,,,0,
0019,0019,Easy & Burnett NE,,33.800846,-118.209943,,,0,
0020,0020,Easy & 25th NE,,33.802676,-118.209948,,,0,
0021,0021,Easy & Willow NE,,33.804657,-118.209985,,,0,
0022,0022,Easy & 27th NE,,33.806295,-118.209947,,,0,
0023,0023,Easy & 28th NE,,33.808116,-118.209945,,,0,
0024,0024,Easy & 29th NE,,33.809927,-118.209936,,,0,
0025,0025,Easy & Spring NE,,33.811856,-118.21,,,0,
0026,0026,Easy & 32nd NE,,33.815506,-118.209928,,,0,
0027,0027,Easy & 33rd NE,,33.817302,-118.209994,,,0,
0028,0028,Easy & 34th SE,,33.81869,-118.210011,,,0,
0029,0029,Delta & Taper NE,,33.819836,-118.211087,,,0,
0031,0031,Wardlow & Santa Fe NW,,33.824485,-118.215945,,,0,
0032,0032,Delta & Wardlow SW,,33.823444,-118.211172,,,0,
0033,0033,Delta & Arlington SW,,33.821208,-118.211159,,,0,
0034,0034,Delta & 34th NW,,33.819097,-118.211171,,,0,
0036,0036,Easy & 33rd SW,,33.816873,-118.210085,,,0,
0037,0037,Easy & 32nd SW,,33.815046,-118.210074,,,0,
0038,0038,Easy & Spring SW,,33.811433,-118.210088,,,0,
0039,0039,Easy & 29th SW,,33.809647,-118.2101,,,0,
0040,0040,Easy & 28th SW,,33.807814,-118.210109,,,0,
0041,0041,Easy & 27th SW,,33.806006,-118.210084,,,0,
0042,0042,Easy & Willow SW,,33.80403,-118.210063,,,0,
0043,0043,Easy & 25th SW,,33.802401,-118.210075,,,0,
0044,0044,Easy & Burnett SW,,33.800631,-118.210068,,,0,
0045,0045,Easy & 23rd SW,,33.798765,-118.210096,,,0,
0046,0046,Easy & Hill SW,,33.796853,-118.210078,,,0,
0047,0047,Easy & 21st SW,,33.795108,-118.210097,,,0,
0048,0048,Harbor & 20th SW,,33.79328,-118.210592,,,0,
0049,0049,Harbor & 19th SW,,33.791433,-118.210588,,,0,
0050,0050,PCH & Harbor SW,,33.789812,-118.21063,,,0,
0051,0051,PCH & Oregon SE,,33.789782,-118.200727,,,0,
0052,0052,PCH & Henderson SE,,33.789771,-118.197436,,,0,
0054,0054,PCH & Pacific SE,,33.789761,-118.193365,,,0,
0057,0057,Long Beach Blvd & PCH SW,,33.789414,-118.189583,,,0,
0058,0058,Long Beach Blvd & 16th SW,,33.786791,-118.18959,,,0,
0059,0059,Long Beach Blvd & 15th SW,,33.785038,-118.189566,,,0,
0060,0060,Long Beach Blvd & Anaheim SW,,33.781885,-118.189605,,,0,
0062,0062,Long Beach Blvd & 10th NW,,33.779159,-118.189565,,,0,
0063,0063,Long Beach Blvd & 8th SW,,33.776111,-118.189589,,,0,
0065,0065,3rd & Cedar NE,,33.770585,-118.194627,,,0,
0068,0068,Magnolia & 3rd NE,,33.770802,-118.198,,,0,
0070,0070,Magnolia & 5th NE,,33.773094,-118.198002,,,0,
0072,0072,Magnolia & 7th NE,,33.775589,-118.198024,,,0,
0074,0074,Magnolia & 9th NE,,33.778018,-118.19802,,,0,
0076,0076,Magnolia & 11th NE,,33.780428,-118.198023,,,0,
0078,0078,Anaheim & Oregon NE,,33.78269,-118.200838,,,0,
0079,0079,Anaheim & Caspian NW,,33.782868,-118.212481,,,0,
0081,0081,Santa Fe & Cowles NE,,33.78497,-118.215399,,,0,
0082,0082,Santa Fe & 16th NE,,33.787572,-118.215389,,,0,
0083,0083,Santa Fe & PCH NE,,33.790183,-118.215379,,,0,
0084,0084,Santa Fe & 19th NE,,33.791944,-118.215364,,,0,
0085,0085,Santa Fe & 20th NE,,33.793736,-118.215315,,,0,
0086,0086,Santa Fe & Hill NE,,33.797676,-118.215356,,,0,
0087,0087,Santa Fe & 23rd NE,,33.799215,-118.215315,,,0,
0088,0088,Santa Fe & 25th SE,,33.802274,-118.215329,,,0,
0089,0089,Santa Fe & 25th NE,,33.802477,-118.215329,,,0,
0090,0090,Santa Fe & Willow NE,,33.805045,-118.215314,,,0,
0091,0091,Santa Fe & La Vere E,,33.806648,-118.215372,,,0,
0093,0093,Santa Fe & Columbia NE,,33.809352,-118.215366,,,0,
0095,0095,Santa Fe & Spring NE,,33.811896,-118.215326,,,0,
0096,0096,Santa Fe & 31st NE,,33.814254,-118.215356,,,0,
0097,0097,Santa Fe & 33rd SE,,33.816993,-118.215382,,,0,
0098,0098,Santa Fe & 34th NE,,33.819107,-118.215326,,,0,
0099,0099,Santa Fe & Arlington NE,,33.82156,-118.215384,,,0,
0100,0100,Santa Fe & Wardlow NE,,33.825028,-118.215393,,,0,
0103,0103,Via Oro & Hughes Way NE,,33.829055,-118.212469,,,0,
0104,0104,Santa Fe & Anaheim NE,,33.783022,-118.215416,,,0,
0105,0105,Wardlow & R/R Tracks NE,,33.824451,-118.218111,,,0,
0106,0106,Wardlow & Webster NW,,33.824458,-118.220264,,,0,
0107,0107,McHelen & Wardlow NE,,33.824658,-118.22223,,,0,
0108,0108,McHelen & 221st NE,,33.826749,-118.222239,,,0,
0109,0109,McHelen & 220th NE,,33.828329,-118.222257,,,0,
0110,0110,McHelen & 219th NE,,33.829525,-118.222161,,,0,
0111,0111,Bataan & Carson SE,,33.83158,-118.223375,,,0,
0112,0112,Carson & Harbor View SE,,33.831705,-118.221432,,,0,
0113,0113,Santa Fe & Carson NE,,33.832116,-118.216678,,,0,
0114,0114,Santa Fe & Madison SE,,33.834466,-118.215895,,,0,
0115,0115,Santa Fe & Van Buren NE,,33.837141,-118.21489,,,0,
0116,0116,Garfield & Jefferson NE,,33.893072,-118.168719,,,0,
0117,0117,Garfield & Jefferson SW,,33.892687,-118.168867,,,0,
0118,0118,Garfield & Somerset NE,,33.896647,-118.168746,,,0,
0119,0119,Garfield & Somerset SW,,33.896207,-118.168892,,,0,
0120,0120,Garfield & Petrol NW,,33.898642,-118.168915,,,0,
0121,0121,Wardlow & Santa Fe SE,,33.824225,-118.215117,,,0,
0123,0123,Carson & Harbor View NW,,33.831803,-118.221976,,,0,
0124,0124,Bataan & Carson SW,,33.831487,-118.223477,,,0,
0125,0125,McHelen & 219th SW,,33.829263,-118.222308,,,0,
0126,0126,McHelen & 220th SW,,33.827977,-118.222404,,,0,
0127,0127,McHelen & 221st SW,,33.826565,-118.222377,,,0,
0129,0129,Wardlow & Webster SE,,33.824228,-118.219827,,,0,
0130,0130,Wardlow & R/R Tracks SW,,33.824246,-118.218328,,,0,
0131,0131,Santa Fe & Wardlow SW,,33.824066,-118.215588,,,0,
0132,0132,Hughes Way & Via Oro NW,,33.828698,-118.213194,,,0,
0134,0134,Santa Fe & Warnock SW,,33.825862,-118.215991,,,0,
0135,0135,Santa Fe & Arlington SW,,33.821161,-118.215587,,,0,
0136,0136,Santa Fe & 34th SW,,33.818449,-118.215574,,,0,
0137,0137,Santa Fe & 33rd W,,33.816864,-118.215652,,,0,
0138,0138,Santa Fe & 31st SW,,33.813844,-118.215578,,,0,
0139,0139,Santa Fe & Spring SW,,33.811426,-118.215575,,,0,
0140,0140,Santa Fe & Columbia SW,,33.808911,-118.215605,,,0,
0142,0142,Santa Fe & La Vere SW,,33.806405,-118.215599,,,0,
0143,0143,Santa Fe & Willow SW,,33.804064,-118.215553,,,0,
0144,0144,Santa Fe & 25th SW,,33.802289,-118.215559,,,0,
0145,0145,Santa Fe & Burnett SW,,33.800575,-118.215557,,,0,
0146,0146,Santa Fe & 23rd SW,,33.798723,-118.215579,,,0,
0147,0147,Santa Fe & Hill SW,,33.796917,-118.215548,,,0,
0148,0148,Santa Fe & 21st NW,,33.795422,-118.215584,,,0,
0150,0150,Santa Fe & 19th SW,,33.791633,-118.215584,,,0,
0151,0151,Santa Fe & PCH SW,,33.789391,-118.215601,,,0,
0152,0152,Santa Fe & 16th NW,,33.787149,-118.215635,,,0,
0153,0153,Santa Fe & Cowles SW,,33.784442,-118.215638,,,0,
0154,0154,Anaheim & Santa Fe SE,,33.782583,-118.215064,,,0,
0155,0155,Anaheim & Harbor SW,,33.782624,-118.210588,,,0,
0156,0156,Anaheim & Oregon SE,,33.782622,-118.200595,,,0,
0157,0157,Magnolia & Anaheim SW,,33.782499,-118.198153,,,0,
0158,0158,Magnolia & 11th SW,,33.77996,-118.198137,,,0,
0160,0160,Magnolia & 9th SW,,33.777537,-118.198154,,,0,
0162,0162,Magnolia & 7th SW,,33.775083,-118.198148,,,0,
0164,0164,Magnolia & 5th SW,,33.77275,-118.19811,,,0,
0167,0167,Broadway & Magnolia SE,,33.769253,-118.197812,,,0,
0169,0169,Broadway & Maine SE,,33.769227,-118.200359,,,0,
0170,0170,Ocean & Hart Pl SE,,33.766679,-118.188515,,,0,
0172,0172,Ocean & Linden SW,,33.7664,-118.18627,,,0,
0173,0173,Ocean & Atlantic SE,,33.766226,-118.184888,,,0,
0175,0175,Ocean & 1st Place SE,,33.766069,-118.181173,,,0,
0176,0176,Ocean & 3rd Place SE,,33.765874,-118.179419,,,0,
0177,0177,Ocean & 5th Place SE,,33.765651,-118.177718,,,0,
0178,0178,Ocean & 7th Place SE,,33.765421,-118.175869,,,0,
0179,0179,Ocean & 11th Place SE,,33.764904,-118.172199,,,0,
0180,0180,Cherry & Ocean NE,,33.764901,-118.168286,,,0,
0181,0181,Cherry & Broadway NE,,33.767551,-118.167776,,,0,
0182,0182,Cherry & 3rd NE,,33.769246,-118.167593,,,0,
0183,0183,Cherry & 4th NE,,33.771939,-118.167593,,,0,
0184,0184,Cherry & 7th NE,,33.775651,-118.167628,,,0,
0185,0185,Cherry & 10th NE,,33.779309,-118.167606,,,0,
0186,0186,Cherry & Anaheim NE,,33.783174,-118.167596,,,0,
0187,0187,Cherry & 14th NE,,33.784642,-118.167603,,,0,
0188,0188,Cherry & 15th NE,,33.786428,-118.167613,,,0,
0189,0189,Cherry & PCH NE,,33.790248,-118.167578,,,0,
0191,0191,Cherry & 21th NE,,33.79562,-118.167608,,,0,
0192,0192,Cherry & Hill NE,,33.797634,-118.167514,,,0,
0193,0193,Cherry & Burnett NE,,33.80105,-118.167478,,,0,
0194,0194,Cherry & Willow NE,,33.804732,-118.167554,,,0,
0196,0196,Cherry & 28th NE,,33.808348,-118.167502,,,0,
0198,0198,Cherry & Spring NE,,33.812289,-118.167457,,,0,
0199,0199,Cherry & 33rd SE,,33.81677,-118.167532,,,0,
0200,0200,Cherry & Wardlow NE,,33.819174,-118.167454,,,0,
0201,0201,Cherry & 36th NE,,33.822447,-118.167425,,,0,
0202,0202,Cherry & 37th E,,33.824747,-118.16742,,,0,
0203,0203,Cherry & Bixby NE,,33.826981,-118.167447,,,0,
0205,0205,Cherry & Carson NE,,33.832773,-118.167426,,,0,
0206,0206,Carson & Cherry SE,,33.832338,-118.1671,,,0,
0207,0207,Carson & Cherry NW,,33.832544,-118.168071,,,0,
0208,0208,Cherry & Tehachapi E,,33.836847,-118.167379,,,0,
0209,0209,Cherry & 45th SE,,33.838262,-118.167378,,,0,
0211,0211,Cherry & San Antonio SE,,33.845976,-118.16738,,,0,
0212,0212,Cherry & Del Amo NE,,33.847372,-118.167392,,,0,
0213,0213,Cherry & Denmead NE,,33.851219,-118.167489,,,0,
0214,0214,Cherry & Candlewood NE,,33.854585,-118.167703,,,0,
0215,0215,Cherry & 55th NE,,33.856296,-118.168366,,,0,
0216,0216,Cherry & South NE,,33.860543,-118.168431,,,0,
0217,0217,Cherry & Hungarford NE,,33.863124,-118.168491,,,0,
0218,0218,Cherry & 61st NE,,33.865866,-118.1685,,,0,
0219,0219,Cherry & Harding NE,,33.867685,-118.168507,,,0,
0220,0220,Cherry & 63rd NE,,33.869851,-118.168528,,,0,
0222,0222,Cherry & 65th NE,,33.872703,-118.168527,,,0,
0223,0223,Cherry & Artesia SE,,33.87431,-118.168546,,,0,
0224,0224,Cherry & 68th NE,,33.878655,-118.168579,,,0,
0225,0225,Garfield & Mobile Home E,,33.883419,-118.168641,,,0,
0226,0226,Garfield & Jackson NE,,33.885714,-118.168652,,,0,
0227,0227,Garfield & Alondra SE,,33.88881,-118.168681,,,0,
0228,0228,Garfield & Alondra SW,,33.88834,-118.168828,,,0,
0229,0229,Garfield & Jackson SW,,33.885004,-118.168868,,,0,
0230,0230,Garfield & Mobile Homes W,,33.883013,-118.168796,,,0,
0231,0231,Cherry & 68th SW,,33.878044,-118.168827,,,0,
0232,0232,Cherry & Artesia SW,,33.874186,-118.168725,,,0,
0233,0233,Cherry & 65th NW,,33.873028,-118.168701,,,0,
0235,0235,Cherry & 63rd SW,,33.869062,-118.168684,,,0,
0236,0236,Cherry & Harding SW,,33.867147,-118.168665,,,0,
0237,0237,Cherry & 61st SW,,33.865463,-118.168653,,,0,
0238,0238,Cherry & Hungerford SW,,33.862698,-118.168637,,,0,
0239,0239,Cherry & South SW,,33.859865,-118.168679,,,0,
0240,0240,Cherry & 56th SW,,33.857689,-118.168668,,,0,
0241,0241,Cherry & 55th SW,,33.855774,-118.168499,,,0,
0242,0242,Cherry & Market SW,,33.854104,-118.167841,,,0,
0243,0243,Cherry & 52nd NW,,33.851125,-118.167785,,,0,
0245,0245,Cherry & San Antonio SW,,33.845647,-118.167669,,,0,
0247,0247,Cherry & Cherry Park SW,,33.840296,-118.167727,,,0,
0248,0248,Cherry & 45th SW,,33.838191,-118.167749,,,0,
0249,0249,Cherry & Tehachapi SW,,33.836326,-118.167766,,,0,
0250,0250,Cherry & Carson SW,,33.831831,-118.167661,,,0,
0252,0252,Cherry & Bixby SW,,33.826451,-118.167622,,,0,
0253,0253,Cherry & 37th SW,,33.824103,-118.167592,,,0,
0254,0254,Cherry & 36th SW,,33.82196,-118.167624,,,0,
0255,0255,Cherry & Wardlow SW,,33.818678,-118.167711,,,0,
0256,0256,Cherry & 33rd SW,,33.816904,-118.167779,,,0,
0257,0257,Cherry & Spring SW,,33.811461,-118.167768,,,0,
0258,0258,Cherry & 29th SW,,33.809622,-118.167755,,,0,
0259,0259,Cherry & 28th SW,,33.807762,-118.167745,,,0,
0261,0261,Cherry & Willow SW,,33.803118,-118.167742,,,0,
0262,0262,Cherry & Burnett SW,,33.800464,-118.167727,,,0,
0263,0263,Cherry & Hill SW,,33.796859,-118.167779,,,0,
0264,0264,Cherry & 21th SW,,33.795037,-118.167851,,,0,
0265,0265,Cherry & 19th NW,,33.792074,-118.167889,,,0,
0266,0266,Cherry & PCH SW,,33.789654,-118.167715,,,0,
0267,0267,Cherry & 15th SW,,33.786065,-118.167744,,,0,
0268,0268,Cherry & 14th SW,,33.784263,-118.16775,,,0,
0269,0269,Cherry & Anaheim SW,,33.782295,-118.167723,,,0,
0270,0270,Cherry & 10th SW,,33.778729,-118.16771,,,0,
0271,0271,Cherry & 7th SW,,33.775063,-118.167715,,,0,
0272,0272,Cherry & 4th SW,,33.771407,-118.167721,,,0,
0273,0273,Cherry & 3rd SW,,33.768769,-118.167731,,,0,
0274,0274,Cherry & Broadway SW,,33.76704,-118.168015,,,0,
0275,0275,Ocean & Cherry NW,,33.764582,-118.168755,,,0,
0276,0276,Ocean & Gaviota NW,,33.76508,-118.172229,,,0,
0277,0277,Ocean & Esperanza NW,,33.765539,-118.175829,,,0,
0278,0278,Ocean & Orange NW,,33.765778,-118.177606,,,0,
0279,0279,Ocean & Cerritos NW,,33.766025,-118.179449,,,0,
0280,0280,Ocean & Bonito NW,,33.766248,-118.181286,,,0,
0282,0282,Ocean & Atlantic NW,,33.766511,-118.185313,,,0,
0284,0284,Ocean & Elm NW,,33.766866,-118.188239,,,0,
0285,0285,Carson & R/R Tracks SW,,33.832321,-118.164484,,,0,
0286,0286,Paramount & Carson NE,,33.832932,-118.159866,,,0,
0287,0287,Paramount & Village NE,,33.83505,-118.159842,,,0,
0288,0288,Paramount & Warwood NE,,33.83645,-118.159835,,,0,
0289,0289,Paramount & Bomberry NE,,33.838565,-118.159864,,,0,
0290,0290,Paramount & Greentop NE,,33.840007,-118.159853,,,0,
0291,0291,Paramount & Fairman NE,,33.842097,-118.159813,,,0,
0292,0292,Paramount & Arbor NE,,33.843305,-118.159803,,,0,
0293,0293,Paramount & Del Amo NE,,33.847526,-118.159789,,,0,
0294,0294,Paramount & Hardwick NE,,33.850455,-118.159767,,,0,
0295,0295,Candlewood & Paramount SE,,33.853755,-118.159534,,,0,
0296,0296,Candlewood & Obispo SE,,33.853782,-118.154544,,,0,
0297,0297,Downey & Candlewood NE,,33.854347,-118.151087,,,0,
0298,0298,Downey & Michelson NE,,33.857081,-118.151094,,,0,
0299,0299,Downey & St. Pancratius NE,,33.858803,-118.151161,,,0,
0300,0300,Downey & South NE,,33.860638,-118.151118,,,0,
0301,0301,Downey & 59th NE,,33.86304,-118.151152,,,0,
0302,0302,Downey & La Jara NE,,33.865637,-118.151153,,,0,
0303,0303,Downey & Harding NE,,33.868236,-118.151191,,,0,
0304,0304,Downey & 64th NE,,33.871253,-118.151203,,,0,
0305,0305,Downey & Artesia NE,,33.875026,-118.151217,,,0,
0306,0306,Downey & 68th NE,,33.879414,-118.151257,,,0,
0307,0307,Downey & 70th SE,,33.882371,-118.151269,,,0,
0308,0308,Downey & Harrison NE,,33.884017,-118.151276,,,0,
0312,0312,Atlantic & 1st SE,,33.767864,-118.184992,,,0,
0313,0313,Atlantic & 4th St NW,,33.771941,-118.185141,,,0,
0314,0314,Atlantic & 4th St NE,,33.771941,-118.184996,,,0,
0315,0315,Downey & 70th SW,,33.881752,-118.151449,,,0,
0316,0316,Downey & 68th NW,,33.878545,-118.151437,,,0,
0317,0317,Downey & Artesia SW,,33.874339,-118.1514,,,0,
0318,0318,Downey & 64th SW,,33.870865,-118.15138,,,0,
0319,0319,Downey & Poppy SW,,33.868851,-118.151321,,,0,
0320,0320,Downey & La Jara SW,,33.865053,-118.151264,,,0,
0321,0321,Downey & 59th NW,,33.863441,-118.151275,,,0,
0322,0322,Downey & South SW,,33.859789,-118.151285,,,0,
0323,0323,Downey & Wolfe NW,,33.858033,-118.151242,,,0,
0324,0324,Candlewood & Downey NW,,33.853895,-118.151593,,,0,
0325,0325,Candlewood & Obispo NW,,33.853929,-118.154985,,,0,
0326,0326,Paramount & Candlewood SW,,33.853477,-118.159988,,,0,
0327,0327,Paramount & Hardwick NW,,33.850292,-118.159955,,,0,
0328,0328,Paramount & Del Amo SW,,33.846679,-118.160037,,,0,
0329,0329,Paramount & Arbor W,,33.843488,-118.159988,,,0,
0330,0330,Paramount & Greentop NW,,33.840007,-118.159998,,,0,
0331,0331,Paramount & Bomberry SW,,33.838565,-118.160002,,,0,
0332,0332,Paramount & Warwood SW,,33.836452,-118.160028,,,0,
0333,0333,Paramount & Village W,,33.834872,-118.160031,,,0,
0334,0334,Paramount & Carson NW,,33.832819,-118.16012,,,0,
0335,0335,Carson & R/R Tracks NE,,33.832544,-118.163613,,,0,
0337,0337,Atlantic at Broadway SW,,33.769078,-118.185135,,,0,
0338,0338,Alamitos & 7th NE,,33.775569,-118.180052,,,0,
0339,0339,Atlantic & 6th St SW,,33.773922,-118.185119,,,0,
0340,0340,4th & Orange NW,,33.771794,-118.176708,,,0,
0342,0342,Alamitos & New York SW,,33.784658,-118.177403,,,0,
0344,0344,Alamitos & 6th SE,,33.77394,-118.180565,,,0,
0345,0345,Alamitos & Broadway SE,,33.768991,-118.182075,,,0,
0346,0346,Alamitos & Anaheim SW,,33.782371,-118.178109,,,0,
0347,0347,Alamitos & 10th NE,,33.779089,-118.178967,,,0,
0348,0348,Alamitos & 10th NW,,33.779078,-118.179122,,,0,
0349,0349,Alamitos & 4th NE,,33.771953,-118.181163,,,0,
0350,0350,Alamitos & 5th SW,,33.772772,-118.18106,,,0,
0351,0351,Atlantic & Anaheim SW,,33.782262,-118.185147,,,0,
0352,0352,Atlantic & 11th SW,,33.780753,-118.185121,,,0,
0355,0355,10th & Long Beach NW,,33.779026,-118.189862,,,0,
0356,0356,10th & Pine NW,,33.779068,-118.192676,,,0,
0358,0358,Alamitos & 7th SW,,33.775012,-118.18037,,,0,
0360,0360,Pacific & 7th SW,,33.775263,-118.193809,,,0,
0362,0362,Pacific & 5th SW,,33.772845,-118.193856,,,0,
0364,0364,Pacific & 3rd SW,,33.770208,-118.193856,,,0,
0366,0366,Pacific & Ocean NW,,33.76744,-118.193853,,,0,
0367,0367,Ocean & Chestnut NW,,33.767364,-118.196531,,,0,
0369,0369,3rd & Magnolia NW,,33.770551,-118.198432,,,0,
0374,0374,Long Beach Blvd & 1st SE,,33.767883,-118.189291,,,0,
0378,0378,Long Beach Blvd & 4th SW,,33.771427,-118.189526,,,0,
0382,0382,Magnolia & Anaheim NE,,33.782879,-118.198009,,,0,
0383,0383,Magnolia & 14th SE,,33.783873,-118.198044,,,0,
0384,0384,Magnolia & 15th NE,,33.786432,-118.198043,,,0,
0385,0385,Magnolia & 17th NE,,33.788325,-118.198058,,,0,
0386,0386,Magnolia & PCH NE,,33.790358,-118.198063,,,0,
0387,0387,Magnolia & 19th NE,,33.791795,-118.198059,,,0,
0388,0388,Magnolia & 20th NE,,33.793587,-118.198014,,,0,
0390,0390,Magnolia & Hill NE,,33.797387,-118.198059,,,0,
0391,0391,Magnolia & 23rd NE,,33.799217,-118.198074,,,0,
0392,0392,Magnolia & Burnett NE,,33.801,-118.198068,,,0,
0393,0393,Magnolia & 25th NE,,33.8028,-118.198039,,,0,
0394,0394,Magnolia & Willow NE,,33.804717,-118.198011,,,0,
0395,0395,Magnolia & 27th NE,,33.806416,-118.198058,,,0,
0396,0396,Magnolia & 28th NE,,33.808175,-118.198039,,,0,
0397,0397,Magnolia & 29th NE,,33.810052,-118.198047,,,0,
0398,0398,Magnolia & Spring NE,,33.811937,-118.198051,,,0,
0400,0400,Magnolia & 32nd NE,,33.815561,-118.198037,,,0,
0401,0401,Wardlow & Magnolia SE,,33.818892,-118.197577,,,0,
0403,0403,Pacific & Brethren Manor W,,33.817898,-118.195405,,,0,
0404,0404,Pacific & Cedar NW,,33.817009,-118.19489,,,0,
0405,0405,32nd & Chestnut NW,,33.815322,-118.196153,,,0,
0408,0408,Magnolia & Spring SW,,33.811423,-118.198224,,,0,
0409,0409,Magnolia & 29th SW,,33.809609,-118.198133,,,0,
0410,0410,Magnolia & 28th SW,,33.807864,-118.198226,,,0,
0411,0411,Magnolia & 27th SW,,33.806048,-118.198189,,,0,
0412,0412,Magnolia & Willow SW,,33.804094,-118.198148,,,0,
0413,0413,Magnolia & 25th SW,,33.802363,-118.198163,,,0,
0414,0414,Magnolia & Burnett SW,,33.800563,-118.198182,,,0,
0415,0415,Magnolia & 23rd SW,,33.798744,-118.198191,,,0,
0416,0416,Magnolia & Hill SW,,33.796906,-118.19816,,,0,
0418,0418,Magnolia & 20th SW,,33.793249,-118.198191,,,0,
0419,0419,Magnolia & 19th SW,,33.791504,-118.1982,,,0,
0420,0420,Magnolia & PCH SW,,33.789539,-118.198192,,,0,
0421,0421,Magnolia & 17th SW,,33.78766,-118.198214,,,0,
0422,0422,Magnolia & 15th SW,,33.785571,-118.198206,,,0,
0423,0423,Magnolia & 14th SW,,33.783837,-118.198169,,,0,
0424,0424,Pacific & 7th NE,,33.775703,-118.193612,,,0,
0425,0425,Pacific & 9th NE,,33.777896,-118.19368,,,0,
0426,0426,Pacific & 10th NE,,33.779231,-118.193673,,,0,
0427,0427,Pacific & Anaheim SE,,33.782246,-118.193651,,,0,
0429,0429,Pacific & 14th NE,,33.784153,-118.193655,,,0,
0430,0430,Pacific & 15th NE,,33.785537,-118.193651,,,0,
0431,0431,Pacific & 16th NE,,33.787313,-118.193652,,,0,
0432,0432,Pacific & PCH NE,,33.790209,-118.193639,,,0,
0433,0433,Pacific & 19th NE,,33.791929,-118.193617,,,0,
0434,0434,Pacific & 20th NE,,33.79372,-118.193595,,,0,
0435,0435,Pacific & 21st NE,,33.795515,-118.193591,,,0,
0436,0436,Pacific & Hill NE,,33.797362,-118.19359,,,0,
0437,0437,Pacific & 23rd NE,,33.799199,-118.193606,,,0,
0438,0438,Pacific & Burnett NE,,33.801026,-118.193598,,,0,
0439,0439,Pacific & 25th NE,,33.802832,-118.193608,,,0,
0440,0440,Pacific & Willow NE,,33.804689,-118.193632,,,0,
0441,0441,Pacific & 27th NE,,33.806426,-118.193667,,,0,
0442,0442,Pacific & 28th NE,,33.808245,-118.193625,,,0,
0443,0443,Pacific & Spring NE,,33.811773,-118.193646,,,0,
0445,0445,Pacific & Spring SW,,33.81138,-118.193869,,,0,
0446,0446,Pacific & 29th SW,,33.809627,-118.193862,,,0,
0447,0447,Pacific & 28th SW,,33.807775,-118.193772,,,0,
0448,0448,Pacific & 27th SW,,33.80599,-118.193861,,,0,
0449,0449,Pacific & Willow NW,,33.804593,-118.193863,,,0,
0450,0450,Pacific & 25th SW,,33.802403,-118.193871,,,0,
0451,0451,Pacific & Burnett SW,,33.800584,-118.193867,,,0,
0452,0452,Pacific & 23rd SW,,33.798628,-118.193856,,,0,
0453,0453,Pacific & Hill SW,,33.796954,-118.193849,,,0,
0454,0454,Pacific & 21st SW,,33.795157,-118.193871,,,0,
0455,0455,Pacific & 20th SW,,33.793327,-118.193854,,,0,
0456,0456,Pacific & 19th SW,,33.791544,-118.193846,,,0,
0457,0457,Pacific & PCH SW,,33.789494,-118.193832,,,0,
0458,0458,Pacific & 16th SW,,33.786917,-118.193836,,,0,
0459,0459,Pacific & 15th SW,,33.785122,-118.193851,,,0,
0460,0460,Pacific & Anaheim SW,,33.782294,-118.193812,,,0,
0461,0461,Pacific & 10th SW,,33.778807,-118.19378,,,0,
0462,0462,Pacific & 9th SW,,33.777566,-118.19385,,,0,
0463,0463,Anaheim & Long Beach Blvd SE,,33.782554,-118.18831,,,0,
0464,0464,Anaheim & Linden SE,,33.782559,-118.186451,,,0,
0465,0465,Anaheim & Atlantic SE,,33.782562,-118.184733,,,0,
0466,0466,Anaheim & Olive SE,,33.78256,-118.18266,,,0,
0467,0467,Anaheim & Martin Luther King Jr SE,,33.78256,-118.180475,,,0,
0468,0468,Anaheim & Alamitos SE,,33.78255,-118.177714,,,0,
0469,0469,Anaheim & Orange SE,,33.782543,-118.176203,,,0,
0471,0471,Anaheim & Walnut SW,,33.782522,-118.172374,,,0,
0472,0472,Anaheim & Rose SE,,33.782543,-118.169646,,,0,
0473,0473,Anaheim & Cherry SE,,33.782568,-118.167438,,,0,
0474,0474,Anaheim & Dawson SE,,33.782525,-118.16527,,,0,
0475,0475,Anaheim & Junipero SE,,33.78254,-118.163081,,,0,
0476,0476,Anaheim & Molino SE,,33.782543,-118.16082,,,0,
0477,0477,Anaheim & Temple SE,,33.782496,-118.15874,,,0,
0478,0478,Anaheim & Orizaba SE,,33.782537,-118.156519,,,0,
0479,0479,Anaheim & Obispo SE,,33.782524,-118.15435,,,0,
0480,0480,Anaheim & Redondo SE,,33.782536,-118.152011,,,0,
0481,0481,Anaheim & Loma SE,,33.782533,-118.14999,,,0,
0482,0482,Anaheim & Mira Mar SE,,33.782539,-118.147318,,,0,
0483,0483,Anaheim & Termino SE,,33.782555,-118.14568,,,0,
0484,0484,Anaheim & Roswell SE,,33.782536,-118.143518,,,0,
0485,0485,Anaheim & Ximeno SE,,33.782552,-118.141168,,,0,
0486,0486,Anaheim & Quincy SW,,33.782526,-118.139677,,,0,
0488,0488,Anaheim & Argonne S,,33.782525,-118.136005,,,0,
0489,0489,Anaheim & PCH NW,,33.782674,-118.133476,,,0,
0491,0491,Anaheim & Park NW,,33.782666,-118.13741,,,0,
0492,0492,Anaheim & Lee NW,,33.782655,-118.140194,,,0,
0493,0493,Anaheim & Ximeno NW,,33.782683,-118.141886,,,0,
0494,0494,Anaheim & Roswill NW,,33.782669,-118.144462,,,0,
0495,0495,Anaheim & Termino NW,,33.782673,-118.146196,,,0,
0496,0496,Anaheim & Mira Mar NW,,33.782664,-118.14851,,,0,
0497,0497,Anaheim & Loma NW,,33.782689,-118.150863,,,0,
0498,0498,Anaheim & Redondo NW,,33.78267,-118.153247,,,0,
0500,0500,Anaheim & Orizaba NW,,33.782686,-118.157036,,,0,
0501,0501,Anaheim & Temple NW,,33.782673,-118.159251,,,0,
0502,0502,Anaheim & Molino NW,,33.782681,-118.161403,,,0,
0503,0503,Anaheim & Junipero NW,,33.782661,-118.163775,,,0,
0504,0504,Anaheim & Dawson NW,,33.782708,-118.165763,,,0,
0505,0505,Anaheim & Cherry NW,,33.782721,-118.168191,,,0,
0507,0507,Anaheim & Walnut NW,,33.782706,-118.17243,,,0,
0508,0508,Anaheim & Gundry NW,,33.78269,-118.174457,,,0,
0509,0509,Anaheim & Alamitos NE,,33.782707,-118.177554,,,0,
0510,0510,Anaheim & Alamitos NW,,33.782698,-118.178281,,,0,
0511,0511,Anaheim & Martin Luther King Jr NW,,33.782708,-118.180966,,,0,
0512,0512,Anaheim & Olive NW,,33.782716,-118.183055,,,0,
0513,0513,Anaheim & Atlantic NW,,33.782706,-118.185481,,,0,
0514,0514,Anaheim & Linden NW,,33.78272,-118.186981,,,0,
0515,0515,Anaheim & Los Altos SE,,33.783363,-118.130853,,,0,
0516,0516,Anaheim & La Pasada SE,,33.781495,-118.128612,,,0,
0518,0518,Bellflower & Anaheim NE,,33.779872,-118.122322,,,0,
0520,0520,7th & Channel SE,,33.775156,-118.118211,,,0,
0527,0527,Atherton & Palo Verde SE,,33.788602,-118.10742,,,0,
0528,0528,Atherton & Iroquois SE,,33.788598,-118.105686,,,0,
0529,0529,Atherton & Vuelta Grande SE,,33.788595,-118.10253,,,0,
0531,0531,Beach Dr & Dorms S,,33.78197,-118.12011,,,0,
0532,0532,Beach Dr & W Campus S,,33.781977,-118.115743,,,0,
0537,0537,7th & VA Hospital NW,,33.775446,-118.119772,,,0,
0538,0538,PCH & Anaheim NW,,33.782741,-118.133008,,,0,
0540,0540,Bellflower & Anaheim NW,,33.779604,-118.122545,,,0,
0541,0541,Bellflower & Anaheim Rd SW,,33.779189,-118.122541,,,0,
0542,0542,Anaheim & La Pasada NW,,33.781884,-118.128889,,,0,
0543,0543,Los Altos & Anaheim SW,,33.783454,-118.131228,,,0,
0544,0544,Los Altos & PCH NE,,33.783002,-118.1324,,,0,
0545,0545,W Campus & Library West Side,,33.77801,-118.115185,,,0,
0546,0546,Long Beach Blvd & PCH NE,,33.790605,-118.189193,,,0,
0547,0547,Long Beach Blvd & 20th NE,,33.794306,-118.189204,,,0,
0548,0548,Long Beach Blvd & Hill NE,,33.797721,-118.189194,,,0,
0550,0550,Long Beach Blvd & Burnett NE,,33.800978,-118.189225,,,0,
0552,0552,Long Beach Blvd & Willow NE,,33.80468,-118.189213,,,0,
0553,0553,Long Beach Blvd & Memorial Hospital E,,33.807543,-118.189278,,,0,
0554,0554,Long Beach Blvd & Columbia NE,,33.809166,-118.189284,,,0,
0555,0555,Long Beach Blvd & Spring NE,,33.811977,-118.189293,,,0,
0556,0556,Long Beach Blvd & 31st NE,,33.813707,-118.189161,,,0,
0557,0557,Long Beach Blvd & 32nd NE,,33.815456,-118.189159,,,0,
0558,0558,Long Beach Blvd & Wardlow NE,,33.819279,-118.189199,,,0,
0559,0559,Long Beach Blvd & 36th NE,,33.82247,-118.189265,,,0,
0560,0560,Long Beach Blvd & Bixby NE,,33.826959,-118.189286,,,0,
0561,0561,Long Beach Blvd & Roosevelt NE,,33.829224,-118.189288,,,0,
0562,0562,Long Beach Blvd & Marshall NE,,33.830853,-118.189281,,,0,
0564,0564,Long Beach Blvd & San Antonio NE,,33.835153,-118.189503,,,0,
0565,0565,Long Beach Blvd & 44th NE,,33.837414,-118.190287,,,0,
0566,0566,Long Beach Blvd & 45th SE,,33.839022,-118.190897,,,0,
0567,0567,Long Beach Blvd & 46th SE,,33.840733,-118.191509,,,0,
0568,0568,Long Beach Blvd & 47th SE,,33.842915,-118.192298,,,0,
0570,0570,Long Beach Blvd & Del Amo NE,,33.847132,-118.193876,,,0,
0571,0571,Long Beach Blvd & 51st SE,,33.848734,-118.194508,,,0,
0572,0572,Long Beach Blvd & 52nd NE,,33.850716,-118.195175,,,0,
0573,0573,Long Beach Blvd & 53rd NE,,33.852652,-118.195881,,,0,
0575,0575,Long Beach Blvd & Market NE,,33.854495,-118.19659,,,0,
0577,0577,Long Beach Blvd & Ellis NE,,33.857013,-118.197486,,,0,
0582,0582,Artesia & Suzana SE,,33.874185,-118.206786,,,0,
0584,0584,Long Beach Blvd & Artesia SW,,33.873864,-118.202737,,,0,
0585,0585,Long Beach Blvd & Bort SW,,33.870358,-118.201693,,,0,
0587,0587,Long Beach Blvd & Harcourt SW,,33.867607,-118.200873,,,0,
0588,0588,Long Beach Blvd & Victoria NW,,33.865397,-118.200206,,,0,
0589,0589,Long Beach Blvd & Ellis NW,,33.856985,-118.197663,,,0,
0591,0591,Long Beach Blvd & Market SW,,33.853802,-118.196546,,,0,
0592,0592,Long Beach Blvd & 53rd SW,,33.852308,-118.195983,,,0,
0593,0593,Long Beach Blvd & 52nd NW,,33.850336,-118.19527,,,0,
0594,0594,Long Beach Blvd & 51st SW,,33.848617,-118.194647,,,0,
0595,0595,Long Beach Blvd & Del Amo SW,,33.846341,-118.193828,,,0,
0597,0597,Long Beach Blvd & 47th NW,,33.842918,-118.192567,,,0,
0598,0598,Long Beach Blvd & 46th NW,,33.840994,-118.191856,,,0,
0599,0599,Long Beach Blvd & 45th SW,,33.839022,-118.191119,,,0,
0600,0600,Long Beach Blvd & 44th NW,,33.837221,-118.190471,,,0,
0601,0601,Long Beach Blvd & San Antonio SW,,33.834146,-118.189433,,,0,
0602,0602,Long Beach Blvd & Marshall SW,,33.8306,-118.189482,,,0,
0603,0603,Long Beach Blvd & Roosevelt SW,,33.828788,-118.189449,,,0,
0604,0604,Long Beach Blvd & Bixby SW,,33.826344,-118.189475,,,0,
0605,0605,Long Beach Blvd & Cameron SW,,33.822977,-118.189456,,,0,
0606,0606,Long Beach Blvd & Wardlow SW,,33.818567,-118.189484,,,0,
0607,0607,Long Beach Blvd & 31st SW,,33.813052,-118.189508,,,0,
0608,0608,Long Beach Blvd & Spring SW,,33.811288,-118.189557,,,0,
0609,0609,Long Beach Blvd & Columbia SW,,33.80876,-118.189541,,,0,
0610,0610,Long Beach Blvd & Memorial Hospital W,,33.807002,-118.189481,,,0,
0611,0611,Long Beach Blvd & Willow SW,,33.804182,-118.189547,,,0,
0613,0613,Long Beach Blvd & Burnett SW,,33.800171,-118.189538,,,0,
0615,0615,Long Beach Blvd & Hill SW,,33.796848,-118.18955,,,0,
0616,0616,Long Beach Blvd & 20th NW,,33.793598,-118.189539,,,0,
0617,0617,7th & Long Beach Blvd NW,,33.775404,-118.189893,,,0,
0618,0618,Elm & 1st NE,,33.768239,-118.187604,,,0,
0621,0621,4th & Linden SE,,33.771698,-118.186095,,,0,
0622,0622,4th & Atlantic SE,,33.771648,-118.184746,,,0,
0624,0624,4th & Alamitos SE,,33.771672,-118.181084,,,0,
0625,0625,4th & Bonito SE,,33.771694,-118.179636,,,0,
0626,0626,Garfield & Richfield (Layover) E,,33.901606,-118.168769,,,0,
0627,0627,4th & Orange SE,,33.771647,-118.176247,,,0,
0629,0629,4th & Walnut SE,,33.77165,-118.171894,,,0,
0631,0631,4th & Cherry SE,,33.771703,-118.167422,,,0,
0632,0632,4th & Junipero SE,,33.77171,-118.164188,,,0,
0633,0633,4th & Wisconsin SE,,33.77167,-118.161562,,,0,
0634,0634,4th & Temple SE,,33.771638,-118.158822,,,0,
0635,0635,4th & Orizaba SE,,33.771704,-118.156561,,,0,
0637,0637,4th & Redondo SE,,33.771663,-118.152277,,,0,
0639,0639,4th & Grand SE,,33.771641,-118.14797,,,0,
0640,0640,4th & Termino SE,,33.771687,-118.145671,,,0,
0642,0642,4th & Ximeno SE,,33.771668,-118.141298,,,0,
0644,0644,4th & Park SW,,33.771637,-118.137363,,,0,
0645,0645,Rosecrans & Spane Park SE,,33.903547,-118.176732,,,0,
0647,0647,Rosecrans & Garfield SE,,33.903544,-118.168615,,,0,
0648,0648,2nd & Park SE,,33.761458,-118.137826,,,0,
0649,0649,Garfield at Richfield SW,,33.901675,-118.168923,,,0,
0650,0650,2nd & Nieto SE,,33.760288,-118.135212,,,0,
0652,0652,2nd & Glendora SE,,33.759159,-118.132526,,,0,
0653,0653,2nd & Santa Ana SE,,33.758652,-118.131311,,,0,
0655,0655,2nd & Venetia SE,,33.757519,-118.126829,,,0,
0657,0657,2nd & Ravenna SE,,33.756767,-118.122932,,,0,
0658,0658,2nd & E Campo SW,,33.756413,-118.12103,,,0,
0659,0659,Marina & Seaport SW,,33.756324,-118.111982,,,0,
0660,0660,Marina & Studebaker SW,,33.753017,-118.108289,,,0,
0661,0661,Alamitos Bay Landing W,,33.748248,-118.113077,,,0,
0665,0665,Main & PCH SW,,33.744146,-118.102837,,,0,
0666,0666,Electric & Main NW,,33.742939,-118.104191,,,0,
0668,0668,Colorado & Appian Way NE,,33.769962,-118.134032,,,0,
0669,0669,Electric & 7th NW,,33.744429,-118.105382,,,0,
0674,0674,Marina & Studebaker NE,,33.753361,-118.108483,,,0,
0675,0675,2nd & Marina NW,,33.75754,-118.113907,,,0,
0676,0676,Rosecrans & Mobile Home Park NW,,33.90374,-118.175661,,,0,
0677,0677,2nd & Ravenna NW,,33.757088,-118.123601,,,0,
0678,0678,Rosecrans & Garfield NW,,33.903752,-118.169426,,,0,
0679,0679,2nd & Venetia NW,,33.757736,-118.126921,,,0,
0680,0680,2nd & Santa Ana NW,,33.758925,-118.131561,,,0,
0681,0681,2nd & Glendora NW,,33.759491,-118.132852,,,0,
0682,0682,Garfield & Rosecrans SW,,33.903214,-118.168924,,,0,
0683,0683,2nd & Nieto NW,,33.760574,-118.135397,,,0,
0685,0685,2nd & Park NW,,33.761758,-118.138087,,,0,
0688,0688,4th & Park NW,,33.771755,-118.137448,,,0,
0690,0690,4th & Ximeno NW,,33.771761,-118.141903,,,0,
0692,0692,4th & Termino NW,,33.771755,-118.146237,,,0,
0693,0693,4th & Grand NW,,33.771767,-118.148319,,,0,
0695,0695,4th & Redondo NW,,33.771778,-118.152702,,,0,
0697,0697,4th & Orizaba NW,,33.771772,-118.157052,,,0,
0698,0698,4th & Temple NW,,33.771778,-118.159181,,,0,
0699,0699,4th & Molino NW,,33.771786,-118.161411,,,0,
0700,0700,4th & Junipero NW,,33.771759,-118.164711,,,0,
0701,0701,4th & Cherry NW,,33.771776,-118.168038,,,0,
0703,0703,4th & Walnut NW,,33.77179,-118.172256,,,0,
0705,0705,4th & Bonito NW,,33.771737,-118.179866,,,0,
0706,0706,4th & Alamitos NW,,33.771809,-118.181729,,,0,
0708,0708,4th & Atlantic NW,,33.771779,-118.185328,,,0,
0709,0709,4th & Linden NW,,33.771768,-118.186657,,,0,
0711,0711,6th & Long Beach Blvd SE,,33.774114,-118.18891,,,0,
0713,0713,Atlantic & 6th NE,,33.774392,-118.184972,,,0,
0714,0714,Atlantic & 7th NE,,33.77574,-118.184977,,,0,
0715,0715,Atlantic & 8th NE,,33.776805,-118.184973,,,0,
0717,0717,Atlantic & 10th NE,,33.779268,-118.184979,,,0,
0718,0718,Atlantic & 11th NE,,33.781111,-118.184984,,,0,
0719,0719,Atlantic & Anaheim NE,,33.782765,-118.184981,,,0,
0720,0720,Atlantic & New York NE,,33.784969,-118.184962,,,0,
0721,0721,Atlantic & 16th NE,,33.787131,-118.18498,,,0,
0722,0722,Atlantic & PCH NE,,33.79,-118.184967,,,0,
0724,0724,Atlantic & 20th NE,,33.793737,-118.184962,,,0,
0726,0726,Atlantic & Hill NE,,33.797369,-118.184983,,,0,
0728,0728,Atlantic & Burnett NE,,33.80095,-118.184978,,,0,
0730,0730,Atlantic & Willow NE,,33.804761,-118.18493,,,0,
0731,0731,Atlantic & Patterson NE,,33.807204,-118.184929,,,0,
0732,0732,Atlantic & Columbia NE,,33.80902,-118.184906,,,0,
0733,0733,Atlantic & 31st NE,,33.813557,-118.184906,,,0,
0734,0734,Atlantic & 33rd NE,,33.817184,-118.184945,,,0,
0735,0735,Atlantic & Wardlow NE,,33.819143,-118.184931,,,0,
0736,0736,Atlantic & 36th NE,,33.822377,-118.184957,,,0,
0737,0737,Atlantic & 37th NE,,33.824512,-118.184946,,,0,
0738,0738,Atlantic & Bixby SE,,33.827398,-118.184881,,,0,
0739,0739,Atlantic & Roosevelt NE,,33.829375,-118.184875,,,0,
0740,0740,Atlantic & Carson NE,,33.83216,-118.18489,,,0,
0742,0742,Atlantic & San Antonio NE,,33.837727,-118.184885,,,0,
0743,0743,Atlantic & 45th NE,,33.840159,-118.184835,,,0,
0744,0744,Atlantic & 46th NE,,33.842993,-118.184824,,,0,
0745,0745,Atlantic & Del Amo NE,,33.845623,-118.184807,,,0,
0746,0746,Atlantic & 51st NE,,33.848683,-118.184777,,,0,
0747,0747,Atlantic & 52nd NE,,33.850698,-118.184771,,,0,
0748,0748,Atlantic & 53rd SE,,33.852356,-118.1848,,,0,
0749,0749,Atlantic & Market NE,,33.854474,-118.184815,,,0,
0751,0751,Atlantic & 56th NE,,33.858228,-118.184836,,,0,
0752,0752,Atlantic & South NE,,33.860174,-118.184878,,,0,
0753,0753,Atlantic & 60th NE,,33.86379,-118.184906,,,0,
0754,0754,Atlantic & Harding NE,,33.867433,-118.185167,,,0,
0756,0756,Atlantic & Jordan HS E,,33.871322,-118.185705,,,0,
0759,0759,Elm & 4th SW,,33.771588,-118.187769,,,0,
0768,0768,Atlantic & Artesia SW,,33.874232,-118.186243,,,0,
0769,0769,Atlantic & Jordan HS W,,33.871031,-118.185857,,,0,
0771,0771,Atlantic & Harding SW,,33.867136,-118.185351,,,0,
0772,0772,Atlantic & 60th NW,,33.863792,-118.185107,,,0,
0773,0773,Atlantic & South SW,,33.859822,-118.185095,,,0,
0774,0774,Atlantic & 56th SW,,33.857862,-118.185084,,,0,
0776,0776,Atlantic & Market NW,,33.854617,-118.185063,,,0,
0777,0777,Atlantic & 53rd SW,,33.852232,-118.185048,,,0,
0778,0778,Atlantic & 52nd SW,,33.850424,-118.185034,,,0,
0779,0779,Atlantic & 51st SW,,33.848503,-118.18506,,,0,
0780,0780,Atlantic & Del Amo SW,,33.84492,-118.185124,,,0,
0781,0781,Atlantic & 46th SW,,33.842443,-118.185104,,,0,
0782,0782,Atlantic & 45th SW,,33.839667,-118.185139,,,0,
0783,0783,Atlantic & San Antonio SW,,33.836258,-118.185127,,,0,
0784,0784,Atlantic & Burlinghall SW,,33.834099,-118.185176,,,0,
0785,0785,Atlantic & Carson SW,,33.831452,-118.185133,,,0,
0786,0786,Atlantic & Roosevelt SW,,33.828724,-118.185138,,,0,
0787,0787,Atlantic & Bixby SW,,33.826512,-118.18513,,,0,
0788,0788,Atlantic & 37th SW,,33.823984,-118.185079,,,0,
0789,0789,Atlantic & 36th SW,,33.82197,-118.185088,,,0,
0790,0790,Atlantic & Wardlow SW,,33.818607,-118.185099,,,0,
0791,0791,Atlantic & 31st NW,,33.813675,-118.1852,,,0,
0792,0792,Atlantic & Columbia SW,,33.808682,-118.185189,,,0,
0794,0794,Atlantic & Willow SW,,33.804076,-118.185091,,,0,
0796,0796,Atlantic & Burnett SW,,33.800551,-118.185079,,,0,
0798,0798,Atlantic & Hill SW,,33.796844,-118.185088,,,0,
0800,0800,Atlantic & 20th SW,,33.793258,-118.185088,,,0,
0802,0802,Atlantic & PCH SW,,33.789609,-118.185101,,,0,
0803,0803,Atlantic & 16th SW,,33.78676,-118.185144,,,0,
0804,0804,Atlantic & New York SW,,33.784606,-118.185182,,,0,
0805,0805,Atlantic & 10th SW,,33.778631,-118.185101,,,0,
0807,0807,Atlantic & 8th SW,,33.776285,-118.185151,,,0,
0808,0808,7th & Atlantic NW,,33.775405,-118.18555,,,0,
0810,0810,New York & Atlantic SE,,33.78482,-118.184781,,,0,
0811,0811,New York & Martin Luther King Jr SE,,33.784821,-118.180612,,,0,
0812,0812,New York & Cerritos SW,,33.784807,-118.178102,,,0,
0813,0813,Alamitos & 15th NE,,33.786439,-118.176707,,,0,
0814,0814,Orange & PCH NE,,33.790107,-118.176225,,,0,
0815,0815,Orange & 19th NE,,33.791429,-118.176233,,,0,
0816,0816,Orange & 20th SE,,33.793401,-118.176273,,,0,
0817,0817,Orange & Hill NE,,33.797443,-118.176281,,,0,
0818,0818,Orange & 23rd SE,,33.798776,-118.176278,,,0,
0819,0819,Orange & Burnett SE,,33.800666,-118.176278,,,0,
0820,0820,Orange & Willow SE,,33.803623,-118.176281,,,0,
0822,0822,Orange & 29th SE,,33.809673,-118.176251,,,0,
0823,0823,Orange & Spring NE,,33.812092,-118.176226,,,0,
0824,0824,Orange & 32nd NE,,33.815531,-118.176281,,,0,
0825,0825,Orange & 33rd NE,,33.817303,-118.176265,,,0,
0826,0826,Orange & Wardlow NE,,33.819134,-118.176273,,,0,
0827,0827,Orange & 36th NE,,33.822354,-118.176268,,,0,
0828,0828,Orange & 37th NE,,33.824446,-118.176302,,,0,
0829,0829,Orange & Bixby NE,,33.826982,-118.176284,,,0,
0830,0830,Orange & Roosevelt NE,,33.830175,-118.176245,,,0,
0831,0831,Orange & Carson NE,,33.832785,-118.17626,,,0,
0832,0832,Orange & Tehachapi NE,,33.836096,-118.176254,,,0,
0833,0833,Orange & Goldfield NE,,33.839281,-118.176247,,,0,
0834,0834,Orange & San Antonio NE,,33.841938,-118.176273,,,0,
0835,0835,Orange & E Goldfield NE,,33.844202,-118.176531,,,0,
0836,0836,Orange & Del Amo NE,,33.847287,-118.176827,,,0,
0837,0837,Orange & 52nd NE,,33.850389,-118.177127,,,0,
0839,0839,Orange & Market NE,,33.854676,-118.177215,,,0,
0841,0841,Orange & 56th NE,,33.857827,-118.177218,,,0,
0842,0842,Orange & South NE,,33.860435,-118.177227,,,0,
0843,0843,Orange & Hungerford NE,,33.863037,-118.177276,,,0,
0844,0844,Orange & 61st NE,,33.865744,-118.177265,,,0,
0845,0845,Orange & Harding NE,,33.867582,-118.177278,,,0,
0847,0847,Orange & 64th NE,,33.871188,-118.1773,,,0,
0848,0848,Orange & 65th NE,,33.873053,-118.177311,,,0,
0849,0849,Orange & Artesia NE,,33.874919,-118.177321,,,0,
0851,0851,Orange & 68th NE,,33.878441,-118.177349,,,0,
0852,0852,Orange & 70th SE,,33.881568,-118.177365,,,0,
0853,0853,Orange & Jackson NE,,33.885811,-118.177381,,,0,
0854,0854,Orange & Alondra NE,,33.889722,-118.177358,,,0,
0855,0855,Orange & Myrrh NE,,33.892953,-118.177438,,,0,
0856,0856,Orange & Somerset Blvd NE,,33.896687,-118.177451,,,0,
0857,0857,Orange & San Vicente NE,,33.899861,-118.177485,,,0,
0858,0858,Orange & San Carlos NE,,33.902216,-118.177496,,,0,
0861,0861,Orange & San Carlos NW,,33.901946,-118.177654,,,0,
0862,0862,Orange & San Vicente NW,,33.899443,-118.177639,,,0,
0863,0863,Orange & Somerset Blvd SW,,33.895983,-118.177625,,,0,
0864,0864,Orange & Myrrh W,,33.892568,-118.177621,,,0,
0865,0865,Orange & Alondra NW,,33.889427,-118.177596,,,0,
0866,0866,Orange & 72nd SW,,33.885225,-118.17749,,,0,
0867,0867,Orange & 70th SW,,33.881598,-118.177536,,,0,
0868,0868,Orange & 68th SW,,33.878071,-118.177457,,,0,
0870,0870,Orange & Artesia SW,,33.874372,-118.17751,,,0,
0871,0871,Orange & 65th SW,,33.872634,-118.177449,,,0,
0872,0872,Orange & 64th SW,,33.870849,-118.17741,,,0,
0874,0874,Orange & Harding SW,,33.867063,-118.177386,,,0,
0875,0875,Orange & 61st SW,,33.865365,-118.177375,,,0,
0876,0876,Orange & 60th SW,,33.863504,-118.177379,,,0,
0877,0877,Orange & South SW,,33.859861,-118.177394,,,0,
0878,0878,Orange & 56th SW,,33.85772,-118.177343,,,0,
0880,0880,Orange & Market SW,,33.854121,-118.177304,,,0,
0881,0881,Orange & Via Wanda SW,,33.84979,-118.177267,,,0,
0882,0882,Orange & Del Amo SW,,33.846709,-118.176882,,,0,
0883,0883,Orange & 45th Way SW,,33.84374,-118.176668,,,0,
0884,0884,Orange & San Antonio SW,,33.84099,-118.176361,,,0,
0885,0885,Orange & Claiborne SW,,33.838816,-118.176437,,,0,
0886,0886,Orange & Tehachapi SW,,33.835601,-118.17645,,,0,
0887,0887,Orange & Carson SW,,33.832112,-118.176436,,,0,
0888,0888,Orange & Roosevelt SW,,33.829541,-118.176369,,,0,
0889,0889,Orange & Bixby NW,,33.827473,-118.176374,,,0,
0890,0890,Orange & 37th SW,,33.823992,-118.176433,,,0,
0891,0891,Orange & 36th SW,,33.822003,-118.176428,,,0,
0892,0892,Orange & Wardlow SW,,33.818699,-118.17644,,,0,
0893,0893,Orange & 33rd SW,,33.816946,-118.176375,,,0,
0894,0894,Orange & 32nd SW,,33.815023,-118.17645,,,0,
0895,0895,Orange & Spring SW,,33.811058,-118.176429,,,0,
0898,0898,Orange & Willow SW,,33.803982,-118.176423,,,0,
0899,0899,Orange & Burnett NW,,33.801199,-118.176444,,,0,
0900,0900,Orange & 23rd SW,,33.798654,-118.176442,,,0,
0901,0901,Orange & Hill NW,,33.797625,-118.176392,,,0,
0902,0902,Orange & 20th SW,,33.79323,-118.176444,,,0,
0903,0903,Orange & 19th SW,,33.791052,-118.176341,,,0,
0904,0904,Orange & PCH SW,,33.789534,-118.176442,,,0,
0905,0905,Alamitos & 16th SW,,33.786946,-118.176763,,,0,
0999,0999,6th & Atlantic SE,,33.774074,-118.184833,,,0,
1000,1000,6th & Olive SE,,33.774114,-118.182076,,,0,
1001,1001,7th & Alamitos SE,,33.775285,-118.179815,,,0,
1003,1003,7th & Orange SE,,33.775288,-118.1761,,,0,
1004,1004,7th & Nebraska SE,,33.775272,-118.173477,,,0,
1005,1005,7th & Walnut SE,,33.775277,-118.171776,,,0,
1006,1006,7th & Rose SE,,33.775289,-118.169638,,,0,
1007,1007,7th & Cherry SE,,33.775267,-118.167242,,,0,
1008,1008,7th & Dawson SE,,33.775273,-118.165241,,,0,
1009,1009,7th & Junipero SE,,33.77529,-118.163057,,,0,
1010,1010,7th & Molino SE,,33.77527,-118.160908,,,0,
1011,1011,7th & Temple SE,,33.775287,-118.158657,,,0,
1012,1012,7th & Orizaba SE,,33.77529,-118.156558,,,0,
1013,1013,7th & Obispo SE,,33.775315,-118.154298,,,0,
1014,1014,7th & Redondo SE,,33.775276,-118.152172,,,0,
1017,1017,7th & Termino SE,,33.77526,-118.145601,,,0,
1019,1019,7th & Ximeno SE,,33.775254,-118.141363,,,0,
1020,1020,7th & Park SE,,33.775306,-118.136866,,,0,
1021,1021,7th & Federation SW,,33.775283,-118.13493,,,0,
1022,1022,7th & Terraine SE,,33.775247,-118.127264,,,0,
1023,1023,7th & Los Altos SE,,33.775258,-118.125026,,,0,
1024,1024,7th & Bellflower SW,,33.775207,-118.121469,,,0,
1025,1025,W Campus & Library East Side,,33.777788,-118.115135,,,0,
1026,1026,Beach Dr & W Campus N,,33.782069,-118.11485,,,0,
1027,1027,Beach Dr & Dorms N,,33.78213,-118.120288,,,0,
1029,1029,Bellflower & Atherton NE,,33.788987,-118.124527,,,0,
1030,1030,Bellflower & Garford NE,,33.792064,-118.125194,,,0,
1031,1031,Bellflower & Britton NE,,33.7941,-118.125222,,,0,
1032,1032,Bellflower & Stearns NE,,33.796158,-118.125196,,,0,
1033,1033,Bellflower & 23rd NE,,33.799301,-118.125184,,,0,
1034,1034,Bellflower & 28th NE,,33.80697,-118.125149,,,0,
1035,1035,Bellflower & Spring NE,,33.810749,-118.125125,,,0,
1036,1036,Bellflower & Mezzanine NE,,33.815392,-118.125119,,,0,
1037,1037,Bellflower & Wardlow NE,,33.819132,-118.125075,,,0,
1038,1038,Bellflower & Monlaco NE,,33.822509,-118.125103,,,0,
1039,1039,Bellflower & Conant NE,,33.824909,-118.125041,,,0,
1040,1040,Bellflower & Harco NE,,33.827977,-118.125075,,,0,
1042,1042,Bellflower & Carson NE,,33.832637,-118.124979,,,0,
1043,1043,Bellflower & Harvey Way NE,,33.83638,-118.124992,,,0,
1044,1044,Bellflower & Centralia NE,,33.839718,-118.124991,,,0,
1045,1045,Bellflower & Arbor Way NE,,33.843291,-118.124963,,,0,
1046,1046,Bellflower & Del Amo NE,,33.847514,-118.124933,,,0,
1047,1047,Bellflower & Hardwick NE,,33.850794,-118.124933,,,0,
1048,1048,Bellflower & Candlewood NE,,33.853804,-118.124914,,,0,
1049,1049,Bellflower & Michelson NE,,33.856361,-118.124926,,,0,
1050,1050,Bellflower & South SE,,33.859951,-118.124904,,,0,
1051,1051,Bellflower & Andy NE,,33.861978,-118.124996,,,0,
1052,1052,Bellflower & Hedda NE,,33.864191,-118.124983,,,0,
1053,1053,Bellflower & Allington NE,,33.865354,-118.124999,,,0,
1054,1054,Bellflower & Ashworth SE,,33.867739,-118.125018,,,0,
1055,1055,Bellflower & Cedar NE,,33.871484,-118.125101,,,0,
1056,1056,Bellflower & Ramona SE,,33.872823,-118.125085,,,0,
1057,1057,Bellflower & Artesia SE,,33.874454,-118.125075,,,0,
1059,1059,Bellflower & Park NE,,33.878766,-118.12515,,,0,
1060,1060,Bellflower & Walnut SE,,33.880123,-118.125189,,,0,
1061,1061,Bellflower & Flower NE,,33.88235,-118.12518,,,0,
1062,1062,Bellflower & Flora Vista NE,,33.886171,-118.125205,,,0,
1065,1065,Bellflower & Flora Vista SW,,33.886231,-118.125353,,,0,
1066,1066,Bellflower & Oak SW,,33.884453,-118.125403,,,0,
1067,1067,Bellflower & Flower SW,,33.881906,-118.125321,,,0,
1068,1068,Bellflower & Walnut SW,,33.880144,-118.125357,,,0,
1069,1069,Bellflower & Park SW,,33.878191,-118.125348,,,0,
1071,1071,Bellflower & Artesia SW,,33.874389,-118.125268,,,0,
1072,1072,Bellflower & Ramona SW,,33.872828,-118.125299,,,0,
1073,1073,Bellflower & Ashworth NW,,33.868128,-118.125323,,,0,
1074,1074,Bellflower & Allington SW,,33.865559,-118.125273,,,0,
1075,1075,Bellflower & Hedda SW,,33.864047,-118.125266,,,0,
1076,1076,Bellflower & Andy NW,,33.862251,-118.125265,,,0,
1077,1077,Bellflower & South SW,,33.859772,-118.125274,,,0,
1078,1078,Bellflower & Michelson SW,,33.856013,-118.1252,,,0,
1079,1079,Bellflower & Candlewood SW,,33.853474,-118.125195,,,0,
1080,1080,Bellflower & Hardwick SW,,33.850623,-118.125206,,,0,
1081,1081,Bellflower & Del Amo SW,,33.846657,-118.125238,,,0,
1082,1082,Bellflower & Arbor SW,,33.842774,-118.125265,,,0,
1083,1083,Bellflower & Centralia SW,,33.839361,-118.125267,,,0,
1084,1084,Bellflower & Harvey Way SW,,33.835869,-118.125301,,,0,
1085,1085,Bellflower & Carson SW,,33.831854,-118.125321,,,0,
1087,1087,Bellflower & Harco SW,,33.827417,-118.125325,,,0,
1088,1088,Bellflower & Conant SW,,33.824919,-118.125331,,,0,
1089,1089,Bellflower & Monlaco SW,,33.822075,-118.12533,,,0,
1090,1090,Bellflower & Wardlow SW,,33.818156,-118.125346,,,0,
1091,1091,Bellflower & Killdee SW,,33.8166,-118.125343,,,0,
1092,1092,Bellflower & Mezzanine SW,,33.815126,-118.125354,,,0,
1093,1093,Bellflower & Pagentry SW,,33.813053,-118.125363,,,0,
1094,1094,Bellflower & Spring SW,,33.810157,-118.125385,,,0,
1095,1095,Bellflower & 28th NW,,33.806668,-118.125396,,,0,
1096,1096,Bellflower & Los Coyotes SW,,33.801637,-118.125488,,,0,
1097,1097,Bellflower & 23rd SW,,33.79893,-118.12543,,,0,
1098,1098,Bellflower & Stearns SW,,33.795786,-118.125498,,,0,
1099,1099,Bellflower & Abbeyfield SW,,33.793679,-118.125518,,,0,
1101,1101,Bellflower & Atherton SW,,33.788147,-118.124364,,,0,
1103,1103,7th & PCH NW,,33.775408,-118.123348,,,0,
1104,1104,7th & Los Altos NW,,33.775409,-118.125546,,,0,
1106,1106,7th & Federation NW,,33.775399,-118.134376,,,0,
1107,1107,7th & Park NW,,33.775428,-118.137987,,,0,
1108,1108,7th & Ximeno NW,,33.775371,-118.142008,,,0,
1110,1110,7th & Termino NW,,33.775391,-118.146213,,,0,
1113,1113,7th & Redondo NW,,33.775418,-118.152814,,,0,
1114,1114,7th & Obispo NW,,33.775419,-118.154831,,,0,
1115,1115,7th & Orizaba NW,,33.775435,-118.156999,,,0,
1116,1116,7th & Temple NW,,33.775435,-118.159388,,,0,
1117,1117,7th & Molino NW,,33.775429,-118.161412,,,0,
1118,1118,7th & Junipero NW,,33.775429,-118.163577,,,0,
1119,1119,7th & Dawson NW,,33.775421,-118.165729,,,0,
1120,1120,7th & Cherry NW,,33.775417,-118.16792,,,0,
1121,1121,7th & Rose NW,,33.775412,-118.170112,,,0,
1122,1122,7th & Walnut NW,,33.775441,-118.172369,,,0,
1123,1123,7th & Nebraska NW,,33.775414,-118.174063,,,0,
1124,1124,7th & Orange NW,,33.775435,-118.176725,,,0,
1125,1125,7th & Alamitos NE,,33.77538,-118.179944,,,0,
1126,1126,7th & Olive NW,,33.775371,-118.182641,,,0,
1128,1128,Del Amo & Bellflower NW,,33.84717,-118.125578,,,0,
1129,1129,Del Amo & Pearce NW,,33.8472,-118.129955,,,0,
1130,1130,Clark & Del Amo NE,,33.847769,-118.13373,,,0,
1131,1131,Clark & Hardwick NE,,33.851136,-118.133717,,,0,
1134,1134,Clark & Candlewood NW,,33.854261,-118.133914,,,0,
1135,1135,Clark & Candlewood NE,,33.85405,-118.13372,,,0,
1136,1136,Candlewood & Graywood NW,,33.85389,-118.13837,,,0,
1137,1137,Clark & Michelson NE,,33.857504,-118.133717,,,0,
1138,1138,Clark & South SE,,33.860053,-118.133713,,,0,
1139,1139,Clark & Hedda SE,,33.863964,-118.133802,,,0,
1140,1140,Clark & Ashworth SE,,33.867756,-118.133811,,,0,
1141,1141,Clark & Rose SE,,33.869463,-118.133807,,,0,
1142,1142,Clark & Cedar NE,,33.871394,-118.133853,,,0,
1143,1143,Clark & Ramona SE,,33.872785,-118.133829,,,0,
1144,1144,Clark & Artesia SE,,33.874486,-118.133868,,,0,
1145,1145,Clark & Park SE,,33.878289,-118.133884,,,0,
1147,1147,Flower & Clark SE,,33.882012,-118.133669,,,0,
1148,1148,Flower & Ardmore SE,,33.882026,-118.128839,,,0,
1149,1149,Flower & Bellflower NW,,33.88212,-118.125976,,,0,
1150,1150,Flower & Ardmore NE,,33.88216,-118.128915,,,0,
1151,1151,Clark & Flower SW,,33.881877,-118.134061,,,0,
1153,1153,Clark & Park NW,,33.878577,-118.134052,,,0,
1154,1154,Clark & Artesia SW,,33.874447,-118.134032,,,0,
1156,1156,Clark & Cedar NW,,33.87143,-118.133995,,,0,
1157,1157,Clark & Rose SW,,33.869432,-118.133981,,,0,
1158,1158,Clark & Ashworth NW,,33.868089,-118.133976,,,0,
1159,1159,Clark & Hedda NW,,33.864374,-118.13397,,,0,
1160,1160,Clark & South SW,,33.859979,-118.133888,,,0,
1163,1163,Clark & Candlewood SW,,33.853306,-118.133877,,,0,
1164,1164,Clark & Hardwick SW,,33.849942,-118.133885,,,0,
1165,1165,Del Amo & Clark SE,,33.847019,-118.13335,,,0,
1166,1166,Del Amo & Pearce SE,,33.846985,-118.129791,,,0,
1167,1167,Willow & Los Coyotes SE,,33.80316,-118.121408,,,0,
1168,1168,Willow & San Vicente SE,,33.803125,-118.117011,,,0,
1169,1169,Woodruff & Willow NE,,33.803461,-118.114456,,,0,
1170,1170,Woodruff & Oakbrook NE,,33.806193,-118.114441,,,0,
1171,1171,Woodruff & Spring NE,,33.811053,-118.11446,,,0,
1172,1172,Woodruff & Los Coyotes NE,,33.813223,-118.115377,,,0,
1173,1173,Woodruff & Fanwood NE,,33.815461,-118.116408,,,0,
1174,1174,Woodruff & Wardlow NE,,33.818964,-118.116407,,,0,
1175,1175,Woodruff & Monlaco NE,,33.822461,-118.116383,,,0,
1176,1176,Woodruff & Conant NE,,33.825156,-118.116471,,,0,
1177,1177,Woodruff & Harco NE,,33.827527,-118.116511,,,0,
1178,1178,Woodruff & Mortuary E,,33.829934,-118.116498,,,0,
1179,1179,Woodruff & Carson NE,,33.832678,-118.116433,,,0,
1180,1180,Woodruff & Harvey Way NE,,33.836376,-118.116347,,,0,
1181,1181,Woodruff & Centralia NE,,33.839608,-118.116298,,,0,
1182,1182,Woodruff & Arbor NE,,33.843867,-118.116295,,,0,
1183,1183,Woodruff & Del Amo NE,,33.847207,-118.116308,,,0,
1184,1184,Woodruff & Hardwick NE,,33.851403,-118.116646,,,0,
1185,1185,Woodruff & Candlewood NE,,33.853816,-118.116859,,,0,
1186,1186,Woodruff & Pavilions SE,,33.856634,-118.116966,,,0,
1187,1187,Woodruff & South SE,,33.857961,-118.116981,,,0,
1188,1188,Woodruff & Arabella SE,,33.862874,-118.11708,,,0,
1189,1189,Woodruff & Ashworth NE,,33.868175,-118.117131,,,0,
1190,1190,Woodruff & Rose NE,,33.870118,-118.117153,,,0,
1191,1191,Woodruff & Artesia NE,,33.873258,-118.1172,,,0,
1192,1192,Woodruff & Beach NE,,33.877743,-118.117249,,,0,
1193,1193,Woodruff & Walnut NE,,33.88054,-118.11727,,,0,
1194,1194,Woodruff & Midway SE,,33.883587,-118.117307,,,0,
1195,1195,Woodruff & Trabuco SE,,33.887215,-118.117302,,,0,
1196,1196,Alondra & Woodruff SE,,33.889297,-118.117038,,,0,
1198,1198,Woodruff & Walnut SW,,33.8801,-118.117457,,,0,
1199,1199,Woodruff & Flora Vista NW,,33.882799,-118.117454,,,0,
1200,1200,Woodruff & Beach SW,,33.877372,-118.117427,,,0,
1201,1201,Woodruff & Artesia SW,,33.872437,-118.117316,,,0,
1202,1202,Woodruff & Rose NW,,33.869873,-118.117383,,,0,
1203,1203,Woodruff & Ashworth SW,,33.867681,-118.117259,,,0,
1204,1204,Woodruff & Allington SW,,33.86518,-118.117227,,,0,
1205,1205,Woodruff & Arabella SW,,33.861509,-118.117263,,,0,
1206,1206,Woodruff & South SW,,33.857547,-118.117149,,,0,
1207,1207,Woodruff & Pavilions SW,,33.856189,-118.117088,,,0,
1208,1208,Woodruff & Candlewood SW,,33.852978,-118.117005,,,0,
1209,1209,Woodruff & Hardwick SW,,33.850095,-118.116774,,,0,
1210,1210,Woodruff & Del Amo SW,,33.846572,-118.116534,,,0,
1211,1211,Woodruff & Arbor NW,,33.843113,-118.116539,,,0,
1212,1212,Woodruff & Centralia SW,,33.839422,-118.116573,,,0,
1213,1213,Woodruff & Harvey Way SW,,33.835601,-118.116566,,,0,
1214,1214,Woodruff & Carson SW,,33.831948,-118.116678,,,0,
1215,1215,Woodruff & Harco SW,,33.827527,-118.116656,,,0,
1216,1216,Woodruff & Conant SW,,33.824875,-118.116699,,,0,
1217,1217,Woodruff & Monlaco SW,,33.822278,-118.116641,,,0,
1218,1218,Woodruff & Wardlow SW,,33.818121,-118.116663,,,0,
1219,1219,Woodruff & Mezzanine SW,,33.814739,-118.116519,,,0,
1220,1220,Woodruff & Los Coyotes NW,,33.813198,-118.115662,,,0,
1221,1221,Woodruff & Spring NW,,33.810852,-118.114713,,,0,
1222,1222,Woodruff & Oakbridge SW,,33.805728,-118.114756,,,0,
1223,1223,Woodruff & Willow SW,,33.803565,-118.114779,,,0,
1224,1224,Woodruff & San Vicente NW,,33.803372,-118.117195,,,0,
1225,1225,Willow & Radnor NW,,33.803395,-118.122461,,,0,
1230,1230,Willow & Easy SE,,33.8043,-118.209705,,,0,
1231,1231,Willow & Oregon SE,,33.80432,-118.201058,,,0,
1233,1233,Willow & Magnolia SE,,33.804273,-118.197804,,,0,
1235,1235,Willow & Pacific SE,,33.804266,-118.193389,,,0,
1236,1236,Willow & Long Beach Blvd SE,,33.804312,-118.189054,,,0,
1237,1237,Carson & Atlantic SE,,33.831682,-118.184634,,,0,
1239,1239,Carson & California SE,,33.832359,-118.180487,,,0,
1240,1240,Carson & Orange SE,,33.832341,-118.175923,,,0,
1241,1241,Carson & Walnut SW,,33.832345,-118.172256,,,0,
1243,1243,Carson & Paramount SE,,33.83228,-118.159454,,,0,
1244,1244,Carson & Obispo SE,,33.832274,-118.156897,,,0,
1245,1245,Carson & Watson SE,,33.832241,-118.15471,,,0,
1246,1246,Carson & Worsham SE,,33.83219,-118.145781,,,0,
1247,1247,Carson & Lakewood SE,,33.832235,-118.141683,,,0,
1249,1249,Carson & Faculty SE,,33.832242,-118.136678,,,0,
1250,1250,Clark & Carson NE,,33.832627,-118.133779,,,0,
1251,1251,Clark & Harvey Way SE,,33.836016,-118.13378,,,0,
1252,1252,Clark & Centralia NE,,33.839836,-118.133763,,,0,
1253,1253,Clark & Arbor NE,,33.84332,-118.133739,,,0,
1254,1254,Clark & Del Amo SW,,33.846178,-118.133842,,,0,
1255,1255,Clark & Arbor SW,,33.842861,-118.133903,,,0,
1270,1270,Carson & Los Coyotes SE,,33.83214,-118.098398,,,0,
1271,1271,Carson & Worsham NW,,33.832521,-118.146003,,,0,
1272,1272,Carson & Nector - LB Towne Center NW,,33.83159,-118.088352,,,0,
1274,1274,Carson & Los Coyotes Diagonal NE,,33.832379,-118.098293,,,0,
1282,1282,Carson & Woodruff NE,,33.832409,-118.116375,,,0,
1288,1288,Clark & Centralia NW,,33.839786,-118.133911,,,0,
1289,1289,Clark & Harvey Way SW,,33.835873,-118.133961,,,0,
1290,1290,Clark & LBCC NW,,33.833669,-118.133938,,,0,
1291,1291,Carson & Clark NW,,33.832457,-118.134351,,,0,
1292,1292,Carson & Faculty NE,,33.83246,-118.137044,,,0,
1293,1293,Carson & Norse Way NW,,33.832488,-118.141285,,,0,
1294,1294,Carson & Lakewood Blvd NW,,33.832461,-118.142991,,,0,
1295,1295,Carson & Lakewood Dr NW,,33.832504,-118.148104,,,0,
1296,1296,Carson & Clubhouse NE,,33.832512,-118.154864,,,0,
1297,1297,Carson & Obispo NW,,33.832517,-118.157495,,,0,
1298,1298,Carson & Paramount NE,,33.832523,-118.159576,,,0,
1299,1299,Carson & Walnut NE,,33.832552,-118.172117,,,0,
1300,1300,Carson & Orange SE,,33.832548,-118.176747,,,0,
1301,1301,Carson & California NW,,33.832495,-118.181025,,,0,
1303,1303,Willow & Atlantic NW,,33.804529,-118.185453,,,0,
1304,1304,Willow & Long Beach Blvd NW,,33.804501,-118.189841,,,0,
1305,1305,Willow & Pacific NW,,33.804499,-118.194028,,,0,
1306,1306,Willow & Chestnut NW,,33.804488,-118.196003,,,0,
1307,1307,Willow & Magnolia NW,,33.804512,-118.198422,,,0,
1308,1308,Carson & Woodruff SE,,33.832143,-118.116287,,,0,
1309,1309,Willow & Oregon NW,,33.804493,-118.201552,,,0,
1310,1310,Willow & Easy NW,,33.804477,-118.21036,,,0,
1311,1311,Willow & Caspian NW,,33.804476,-118.212496,,,0,
1312,1312,Adriatic & Willow SW,,33.804167,-118.214434,,,0,
1313,1313,Broadway & Long Beach Bl SE,,33.769281,-118.188893,,,0,
1316,1316,Broadway & Atlantic SE,,33.769239,-118.184691,,,0,
1318,1318,Broadway & Alamitos SE,,33.769099,-118.181838,,,0,
1320,1320,Broadway & Cerritos SE,,33.768626,-118.17854,,,0,
1321,1321,Broadway & Orange SE,,33.76842,-118.176655,,,0,
1323,1323,Broadway & Falcon SE,,33.767933,-118.173071,,,0,
1324,1324,Broadway & Gaviota SE,,33.767702,-118.171257,,,0,
1326,1326,Broadway & Cherry SE,,33.76724,-118.167657,,,0,
1327,1327,Broadway & Junipero SE,,33.766828,-118.16562,,,0,
1329,1329,Broadway & Wisconsin SE,,33.766034,-118.161614,,,0,
1330,1330,Broadway & Temple SE,,33.765398,-118.158698,,,0,
1332,1332,Broadway & Obispo SE,,33.764497,-118.154377,,,0,
1333,1333,Broadway & Redondo SE,,33.764403,-118.152198,,,0,
1335,1335,Broadway & Grand SE,,33.764414,-118.147839,,,0,
1336,1336,Broadway & Termino SE,,33.764402,-118.145706,,,0,
1338,1338,Ximeno & Broadway NE,,33.764666,-118.141497,,,0,
1339,1339,Ximeno & 3rd NE,,33.768273,-118.141493,,,0,
1341,1341,Ximeno & 4th NE,,33.771794,-118.141482,,,0,
1342,1342,Ximeno & 7th NE,,33.775723,-118.141496,,,0,
1343,1343,Ximeno & 10th SE,,33.778867,-118.141484,,,0,
1344,1344,Ximeno & Anaheim NE,,33.782923,-118.141465,,,0,
1345,1345,Ximeno & 15th NE,,33.785901,-118.141427,,,0,
1346,1346,PCH & Ximeno NW,,33.788127,-118.139722,,,0,
1347,1347,Lakewood & Outer Circle NE,,33.791739,-118.142579,,,0,
1348,1348,Lakewood & De Ora E,,33.7943,-118.14259,,,0,
1349,1349,Lakewood & Stearns NE,,33.796158,-118.142573,,,0,
1350,1350,Lakewood & 23rd NE,,33.79979,-118.14256,,,0,
1351,1351,Willow & Lakewood NW,,33.803444,-118.14306,,,0,
1352,1352,Carson & Bellflower SE,,33.832194,-118.124897,,,0,
1353,1353,Willow & Grand NW,,33.804202,-118.147965,,,0,
1354,1354,Redondo & Willow NE,,33.805025,-118.151242,,,0,
1355,1355,Redondo & Kilroy Airport NE,,33.807859,-118.151295,,,0,
1356,1356,Kilroy Airport Way & Redondo SE,,33.807589,-118.151069,,,0,
1357,1357,Kilroy Airport Way & 3800 Building NE,,33.806805,-118.145017,,,0,
1358,1358,Lakewood & Spring NE,,33.813217,-118.139044,,,0,
1360,1360,Long Beach Airport / Lot A,,33.81753,-118.142919,,,0,
1361,1361,Lakewood & Wardlow NE,,33.819433,-118.139107,,,0,
1362,1362,Lakewood & Conant NE,,33.825279,-118.142399,,,0,
1363,1363,Lakewood & Cover E,,33.828549,-118.142407,,,0,
1365,1365,Lakewood & Carson NE,,33.833139,-118.142379,,,0,
1366,1366,Lakewood & Harvey Way NE,,33.836375,-118.142369,,,0,
1367,1367,Lakewood & Centralia NE,,33.839788,-118.142352,,,0,
1368,1368,Lakewood & Arbor NE,,33.843263,-118.142348,,,0,
1369,1369,Lakewood & Del Amo NE,,33.847611,-118.142387,,,0,
1370,1370,Lakewood & Hardwick NE,,33.851105,-118.142335,,,0,
1371,1371,Candlewood & Lakewood SE,,33.853738,-118.141847,,,0,
1372,1372,Candlewood & Graywood SE,,33.853775,-118.137689,,,0,
1374,1374,Lakewood & Candlewood SW,,33.853508,-118.142671,,,0,
1375,1375,Lakewood & Hardwick SW,,33.850044,-118.142721,,,0,
1376,1376,Lakewood & Del Amo SW,,33.846134,-118.14266,,,0,
1377,1377,Lakewood & Arbor SW,,33.842813,-118.142655,,,0,
1378,1378,Lakewood & Centralia SW,,33.839717,-118.14267,,,0,
1379,1379,Lakewood & Harvey Way SW,,33.835965,-118.14271,,,0,
1380,1380,Lakewood & Carson SW,,33.831749,-118.142741,,,0,
1381,1381,Lakewood & Cover W,,33.827037,-118.142751,,,0,
1382,1382,Lakewood & Conant SW,,33.824729,-118.142707,,,0,
1384,1384,Lakewood & Spring NW,,33.812968,-118.139427,,,0,
1386,1386,Kilroy Airport Way & 3800 Building NW,,33.806828,-118.145161,,,0,
1387,1387,Redondo & 29th SW,,33.806292,-118.151488,,,0,
1388,1388,Willow & Adult School,,33.804547,-118.149961,,,0,
1389,1389,Redondo & Kilroy Airport NW,,33.807714,-118.151407,,,0,
1390,1390,Lakewood & Willow SW,,33.802906,-118.142901,,,0,
1391,1391,Lakewood & 23rd SW,,33.799474,-118.142878,,,0,
1392,1392,Lakewood & Stearns SW,,33.795871,-118.142882,,,0,
1393,1393,Lakewood & De Ora W,,33.794119,-118.142879,,,0,
1394,1394,Outer Circle & Lakewood SE,,33.791489,-118.142407,,,0,
1395,1395,Ximeno & PCH SW,,33.787524,-118.13998,,,0,
1396,1396,Ximeno & Ransom SW,,33.786402,-118.141257,,,0,
1397,1397,Ximeno & Anaheim SW,,33.782282,-118.141615,,,0,
1398,1398,Ximeno & 10th SW,,33.778683,-118.141625,,,0,
1399,1399,Ximeno & 7th SW,,33.77499,-118.141632,,,0,
1400,1400,Ximeno & 4th SW,,33.771511,-118.141623,,,0,
1402,1402,Ximeno & 3rd SW,,33.767889,-118.141627,,,0,
1403,1403,Broadway & Ximeno NW,,33.764474,-118.141852,,,0,
1405,1405,Broadway & Termino NE,,33.764502,-118.145786,,,0,
1407,1407,Broadway & Loma NW,,33.76451,-118.150363,,,0,
1408,1408,Broadway & Redondo NW,,33.764501,-118.152827,,,0,
1409,1409,Broadway & Corto NE,,33.764898,-118.15577,,,0,
1410,1410,Lakewood & Conant SE,,33.824475,-118.142144,,,0,
1411,1411,Broadway & Temple NE,,33.765532,-118.158823,,,0,
1412,1412,Broadway & Molino NW,,33.765977,-118.160887,,,0,
1414,1414,Broadway & Junipero NW,,33.767036,-118.166039,,,0,
1415,1415,Broadway & Cherry NW,,33.767366,-118.168042,,,0,
1417,1417,Broadway & Gaviota NW,,33.767872,-118.171722,,,0,
1418,1418,Broadway & Falcon NW,,33.768117,-118.173551,,,0,
1420,1420,Broadway & Orange NW,,33.768551,-118.177076,,,0,
1421,1421,Broadway & Cerritos NW,,33.768788,-118.178939,,,0,
1423,1423,Alamitos & Broadway SW,,33.769038,-118.182206,,,0,
1425,1425,1st & Alamitos NW,,33.768147,-118.182573,,,0,
1427,1427,1st & Linden NE,,33.76815,-118.186288,,,0,
1428,1428,Willow & Lakewood SE,,33.803203,-118.142151,,,0,
1429,1429,Clark & Willow NE,,33.803735,-118.133867,,,0,
1430,1430,Clark & 28th NE,,33.807035,-118.133908,,,0,
1431,1431,Clark & Spring NE,,33.811088,-118.133918,,,0,
1432,1432,Clark & Pageantry NE,,33.813385,-118.133915,,,0,
1433,1433,Clark & Mezzanine NE,,33.815616,-118.133899,,,0,
1435,1435,Clark & Wardlow NE,,33.819202,-118.133878,,,0,
1436,1436,Clark & Monlaco NE,,33.822549,-118.133861,,,0,
1437,1437,Clark & Conant SE,,33.824934,-118.133851,,,0,
1438,1438,Clark & Harco SE,,33.826836,-118.133825,,,0,
1439,1439,Clark & Hanbury NE,,33.829457,-118.133789,,,0,
1440,1440,Clark & Lew Davis SW,,33.829707,-118.13401,,,0,
1441,1441,Clark & Harco NW,,33.82694,-118.134042,,,0,
1442,1442,Clark & Conant SW,,33.824741,-118.134047,,,0,
1443,1443,Clark & Monlaco SW,,33.82203,-118.134064,,,0,
1444,1444,Clark & Wardlow SW,,33.818518,-118.134058,,,0,
1446,1446,Clark & Mezzanine SW,,33.815062,-118.134074,,,0,
1447,1447,Clark & Pageantry SW,,33.812883,-118.13406,,,0,
1448,1448,Clark & Spring SW,,33.810149,-118.134126,,,0,
1449,1449,Clark & 28th SW,,33.806621,-118.134052,,,0,
1450,1450,Clark & Willow NW,,33.803792,-118.134105,,,0,
1453,1453,Ocean & Queensway SE,,33.767208,-118.197903,,,0,
1454,1454,Ocean & Chestnut SE,,33.767139,-118.19629,,,0,
1455,1455,Ocean & Cherry SE,,33.764403,-118.168185,,,0,
1456,1456,Ocean & 19th Pl SE,,33.763826,-118.165209,,,0,
1457,1457,Ocean & Lindero SE,,33.76309,-118.163058,,,0,
1458,1458,Ocean & Temple SE,,33.762338,-118.159488,,,0,
1459,1459,Ocean & Paloma SE,,33.76166,-118.156059,,,0,
1460,1460,Ocean & Redondo SE,,33.760905,-118.152393,,,0,
1461,1461,Ocean & 38th Pl SW,,33.76044,-118.148931,,,0,
1462,1462,Livingston & Termino SE,,33.760562,-118.145385,,,0,
1464,1464,Livingston & Ximeno SE,,33.761581,-118.141491,,,0,
1465,1465,PCH & 2nd NE,,33.758373,-118.111266,,,0,
1467,1467,Loynes & PCH SE,,33.76748,-118.116036,,,0,
1468,1468,Bixby Village & Loynes NE,,33.768999,-118.114044,,,0,
1469,1469,Channel & 7th SW,,33.774443,-118.119109,,,0,
1470,1470,Bixby Village & S Greenway W,,33.771685,-118.114528,,,0,
1471,1471,PCH & Loynes SW,,33.76694,-118.116979,,,0,
1473,1473,PCH & Marina Pacifica W,,33.759923,-118.113149,,,0,
1474,1474,Livingston & Ximeno NW,,33.761778,-118.141778,,,0,
1477,1477,Ocean & Grand NW,,33.760591,-118.148411,,,0,
1478,1478,Ocean & Redondo NW,,33.761124,-118.152939,,,0,
1479,1479,Ocean & Paloma NW,,33.761853,-118.156431,,,0,
1480,1480,Ocean & Temple NW,,33.76261,-118.160045,,,0,
1481,1481,Ocean & Lindero NW,,33.763328,-118.163471,,,0,
1482,1482,Ocean & Kennebec NW,,33.763969,-118.16513,,,0,
1483,1483,PCH & Loynes NE,,33.767605,-118.116846,,,0,
1484,1484,Central & Victoria SW,,33.867106,-118.2488,,,0,
1485,1485,Victoria and Central NW,,33.86758,-118.249139,,,0,
1488,1488,Central & University SW,,33.857426,-118.248699,,,0,
1489,1489,Central and University SE,,33.85754,-118.248401,,,0,
1490,1490,Central & Turmont SW,,33.853208,-118.248651,,,0,
1491,1491,Central and Turmont,,33.853658,-118.248408,,,0,
1492,1492,Central & Helmick SW,,33.851511,-118.248661,,,0,
1493,1493,Central and Helmick NE,,33.851957,-118.248406,,,0,
1494,1494,Avalon & Del Amo SW,,33.84731,-118.264942,,,0,
1495,1495,Central and Del Amo NE,,33.847142,-118.248406,,,0,
1496,1496,Avalon & South Bay Pavilion SW,,33.843229,-118.263161,,,0,
1497,1497,Avalon and South Bay Pavilion SE,,33.843329,-118.26294,,,0,
1498,1498,Avalon & 213th SW,,33.835173,-118.263837,,,0,
1499,1499,Avalon and 213th NE,,33.835605,-118.263531,,,0,
1500,1500,Avalon & Carson SW,,33.831357,-118.263802,,,0,
1501,1501,Avalon and Carson NE,,33.832578,-118.263523,,,0,
1502,1502,Avalon and 220th SW,,33.827514,-118.263798,,,0,
1503,1503,Avalon and 220th SE,,33.828078,-118.263518,,,0,
1504,1504,223rd and Avalon NW,,33.824271,-118.264108,,,0,
1505,1505,Avalon and 223rd,,33.824562,-118.26351,,,0,
1506,1506,223rd and Grace NW,,33.824262,-118.268272,,,0,
1507,1507,223rd & Grace SE,,33.824146,-118.267829,,,0,
1508,1508,223rd and Dolores NW,,33.824244,-118.272686,,,0,
1509,1509,223rd and Dolores SW,,33.824143,-118.272488,,,0,
1510,1510,Main and 223rd SW,,33.824078,-118.276138,,,0,
1511,1511,223rd and Main SE,,33.824138,-118.275546,,,0,
1512,1512,Main and 225th SW,,33.821796,-118.275779,,,0,
1513,1513,223rd and Moneta SW,,33.824229,-118.281894,,,0,
1514,1514,Main and 228th SW,,33.818696,-118.275652,,,0,
1515,1515,Figueroa and 223rd SE,,33.824188,-118.285899,,,0,
1516,1516,Main and 234th NW,,33.813585,-118.275716,,,0,
1517,1517,Figueroa and Shadewell NE,,33.821977,-118.2859,,,0,
1518,1518,Sepulveda and Main NW,,33.807994,-118.276303,,,0,
1519,1519,Figueroa and 228th NE,,33.819218,-118.285822,,,0,
1520,1520,321 W Sepulveda NE,,33.808014,-118.279091,,,0,
1522,1522,Figueroa and Sepulveda NE,,33.808173,-118.284509,,,0,
1523,1523,Figueroa & 234 SE,,33.813211,-118.285317,,,0,
1525,1525,Figueroa & Carriagedale SE,,33.809907,-118.285219,,,0,
1531,1531,Ocean & Magnolia NW,,33.767435,-118.198407,,,0,
1541,1541,Ximeno & PCH SE,,33.787563,-118.139634,,,0,
1546,1546,Santa Fe & Dominguez NE,,33.839689,-118.213898,,,0,
1547,1547,Santa Fe & El Presidio NE,,33.841986,-118.213112,,,0,
1549,1549,Del Amo & Pacific SW,,33.846556,-118.198271,,,0,
1550,1550,Del Amo & Long Beach Blvd SE,,33.846644,-118.193078,,,0,
1551,1551,Del Amo & Locust SE,,33.846331,-118.189478,,,0,
1552,1552,Del Amo & Atlantic SE,,33.845239,-118.184236,,,0,
1553,1553,Del Amo & Orange SW,,33.846865,-118.177003,,,0,
1554,1554,Del Amo & Cherry SE,,33.8468,-118.167009,,,0,
1555,1555,Del Amo & Clair Del SE,,33.846952,-118.165096,,,0,
1556,1556,Del Amo & Paramount SE,,33.846996,-118.159369,,,0,
1557,1557,Del Amo & Obispo SE,,33.847032,-118.15444,,,0,
1558,1558,Del Amo & Downey SW,,33.847075,-118.151522,,,0,
1559,1559,Del Amo & Bellflower SE,,33.847004,-118.124633,,,0,
1560,1560,Del Amo & Eastbrook SE,,33.846956,-118.120453,,,0,
1561,1561,Del Amo & Woodruff SE,,33.846971,-118.115932,,,0,
1562,1562,Del Amo & Snowden SE,,33.846906,-118.111453,,,0,
1563,1563,Del Amo & Palo Verde SE,,33.846944,-118.10708,,,0,
1564,1564,Del Amo & Stables S,,33.845837,-118.096112,,,0,
1565,1565,Del Amo & Roseton SE,,33.845924,-118.086549,,,0,
1566,1566,Del Amo & Pioneer SE,,33.845955,-118.081589,,,0,
1567,1567,Del Amo & Violeta SE,,33.845971,-118.078606,,,0,
1568,1568,Del Amo & Artesia HS S,,33.845993,-118.074598,,,0,
1569,1569,Del Amo & Norwalk SE,,33.845936,-118.071177,,,0,
1570,1570,Del Amo & Claretta SE,,33.84603,-118.067587,,,0,
1572,1572,Bloomfield & Del Amo SW,,33.845864,-118.063549,,,0,
1573,1573,Bloomfield & Lemming SW,,33.840822,-118.063516,,,0,
1574,1574,Centralia & Bloomfield NW,,33.838826,-118.063924,,,0,
1575,1575,Centralia & Claretta NW,,33.838795,-118.067574,,,0,
1576,1576,Centralia & Norwalk NW,,33.838844,-118.072547,,,0,
1577,1577,Centralia & Elaine NW,,33.83882,-118.076679,,,0,
1578,1578,Centralia & Pioneer NW,,33.838824,-118.08236,,,0,
1579,1579,Centralia & Gridley NW,,33.838779,-118.09102,,,0,
1580,1580,Studebaker & Lemming NE,,33.841154,-118.093779,,,0,
1581,1581,Studebaker & Horney NE,,33.843283,-118.094884,,,0,
1582,1582,Del Amo & Palo Verde NE,,33.847108,-118.107294,,,0,
1583,1583,Del Amo & McNab NW,,33.84711,-118.111839,,,0,
1584,1584,Del Amo & Woodruff NW,,33.847144,-118.116752,,,0,
1585,1585,Del Amo & Dunrobin NW,,33.847147,-118.121728,,,0,
1586,1586,Del Amo & Lakewood NW,,33.847233,-118.143131,,,0,
1587,1587,Del Amo & Downey NW,,33.847231,-118.151631,,,0,
1588,1588,Del Amo & Obispo NW,,33.847183,-118.155075,,,0,
1589,1589,Del Amo & Paramount NW,,33.84717,-118.160397,,,0,
1590,1590,Del Amo & Clair Del NW,,33.847108,-118.165768,,,0,
1591,1591,Del Amo & Cherry NW,,33.847075,-118.168133,,,0,
1592,1592,Del Amo & Orange NW,,33.8471,-118.177314,,,0,
1593,1593,Del Amo & Atlantic NW,,33.845282,-118.185362,,,0,
1594,1594,Del Amo & Locust NE,,33.846589,-118.189673,,,0,
1595,1595,Del Amo & Del Amo Gardens N,,33.846854,-118.192525,,,0,
1596,1596,Del Amo & Long Beach Blvd NW,,33.846837,-118.194485,,,0,
1597,1597,Del Amo & Daisy NW,,33.846756,-118.19897,,,0,
1598,1598,Santa Fe & Del Amo SW,,33.846517,-118.211803,,,0,
1599,1599,Santa Fe & El Presido SW,,33.841324,-118.213486,,,0,
1600,1600,Santa Fe & Dominguez SW,,33.83901,-118.214418,,,0,
1601,1601,Santa Fe & Van Buren SW,,33.836797,-118.215265,,,0,
1602,1602,Santa Fe & Madison NW,,33.834878,-118.215958,,,0,
1604,1604,Market & Long Beach Blvd SE,,33.854242,-118.196247,,,0,
1605,1605,Market & Cedar SE,,33.854244,-118.193566,,,0,
1606,1606,Market & Pine SE,,33.854286,-118.191554,,,0,
1607,1607,Market & Elm SE,,33.854296,-118.188208,,,0,
1608,1608,South & Atlantic SE,,33.860037,-118.184644,,,0,
1609,1609,South & Myrtle SE,,33.860044,-118.181745,,,0,
1610,1610,South & Lemon SE,,33.860054,-118.178867,,,0,
1611,1611,South & Orange SE,,33.860106,-118.17696,,,0,
1612,1612,South & Gundry SE,,33.860108,-118.175372,,,0,
1613,1613,South & Walnut SE,,33.860059,-118.173254,,,0,
1614,1614,South & Rose SW,,33.86009,-118.170712,,,0,
1615,1615,South & Cherry SE,,33.860025,-118.168149,,,0,
1616,1616,South & Ackerfield SW,,33.860069,-118.163847,,,0,
1617,1617,South & Paramount SE,,33.860104,-118.159362,,,0,
1618,1618,South & Obispo SW,,33.860099,-118.15566,,,0,
1619,1619,South & Downey SE,,33.860144,-118.151032,,,0,
1620,1620,South & Hayter SE,,33.860162,-118.145889,,,0,
1621,1621,South & Lakewood SE,,33.860186,-118.141496,,,0,
1622,1622,South & Graywood SE,,33.860176,-118.137886,,,0,
1623,1623,South & Clark SE,,33.860154,-118.133569,,,0,
1624,1624,South & Pearce SE,,33.860205,-118.12978,,,0,
1625,1625,South & Bellflower SE,,33.860237,-118.124639,,,0,
1626,1626,South & Ocana SE,,33.859017,-118.11968,,,0,
1627,1627,South & Woodruff SE,,33.85818,-118.11674,,,0,
1628,1628,South & Gondar SW,,33.858192,-118.113435,,,0,
1629,1629,South & Palo Verde SE,,33.858212,-118.107532,,,0,
1630,1630,Studebaker & South NE,,33.858738,-118.099523,,,0,
1631,1631,Studebaker & Auto Square NE,,33.862272,-118.099514,,,0,
1632,1632,183rd & Studebaker SE,,33.865518,-118.099099,,,0,
1634,1634,183rd & Los Cerritos Center SE,,33.865552,-118.09439,,,0,
1637,1637,South & Studebaker NW,,33.858454,-118.100573,,,0,
1638,1638,South & Palo Verde NE,,33.858376,-118.107527,,,0,
1639,1639,South & Snowden NW,,33.858356,-118.112206,,,0,
1640,1640,South & Woodruff NE,,33.858337,-118.116751,,,0,
1641,1641,South & Ocana NW,,33.859585,-118.120422,,,0,
1642,1642,South & Bellflower NW,,33.860464,-118.125611,,,0,
1643,1643,South & Pearce NW,,33.860409,-118.130001,,,0,
1644,1644,South & Clark NW,,33.860461,-118.134206,,,0,
1645,1645,South & Graywood NW,,33.860392,-118.138374,,,0,
1646,1646,South & Lakewood NW,,33.860376,-118.143032,,,0,
1647,1647,South & Hayter NW,,33.860303,-118.146361,,,0,
1648,1648,South & Downey NW,,33.8603,-118.151635,,,0,
1649,1649,South & Obispo NW,,33.860289,-118.156071,,,0,
1650,1650,South & Paramount NW,,33.860266,-118.16036,,,0,
1651,1651,South & Ackerfield NW,,33.860259,-118.163492,,,0,
1652,1652,South & Cherry NW,,33.860238,-118.16891,,,0,
1653,1653,South & Rose NW,,33.860214,-118.170817,,,0,
1654,1654,South & Walnut NW,,33.860198,-118.173798,,,0,
1655,1655,South & Gundry NW,,33.860176,-118.175609,,,0,
1656,1656,South & Orange NE,,33.86017,-118.177085,,,0,
1657,1657,South & Lewis NW,,33.860178,-118.180395,,,0,
1658,1658,South & Myrtle NW,,33.860158,-118.18225,,,0,
1659,1659,Market & Elm NW,,33.854392,-118.188626,,,0,
1660,1660,Market & Pine NW,,33.854376,-118.191996,,,0,
1662,1662,PCH & Long Beach Blvd SE,,33.789756,-118.188248,,,0,
1663,1663,PCH & Atlantic SE,,33.789784,-118.184226,,,0,
1665,1665,PCH & Martin Luther King Jr SW,,33.789781,-118.180507,,,0,
1667,1667,PCH & Orange SE,,33.789781,-118.175782,,,0,
1668,1668,PCH & Walnut SE,,33.789778,-118.17175,,,0,
1670,1670,PCH & Cherry SE,,33.789766,-118.166394,,,0,
1672,1672,PCH & Junipero SW,,33.789794,-118.163434,,,0,
1674,1674,PCH & Temple SE,,33.789787,-118.158603,,,0,
1676,1676,PCH & Obispo SE,,33.789782,-118.154314,,,0,
1677,1677,PCH & Redondo SE,,33.789772,-118.151543,,,0,
1679,1679,PCH & Grand SE,,33.789752,-118.147851,,,0,
1680,1680,PCH & Termino SW,,33.789759,-118.146209,,,0,
1681,1681,Ximeno & PCH NE,,33.788025,-118.139216,,,0,
1682,1682,PCH & Termino NW,,33.789927,-118.146186,,,0,
1683,1683,PCH & Redondo NW,,33.789925,-118.152136,,,0,
1684,1684,PCH & Obispo NW,,33.789949,-118.15496,,,0,
1686,1686,PCH & Temple NW,,33.789959,-118.159337,,,0,
1688,1688,PCH & Junipero NW,,33.789962,-118.163612,,,0,
1690,1690,PCH & Cherry NE,,33.789931,-118.167535,,,0,
1692,1692,PCH & Walnut NW,,33.789969,-118.172231,,,0,
1693,1693,PCH & LBCC NE,,33.789965,-118.175466,,,0,
1695,1695,PCH & Martin Luther King Jr NW,,33.789965,-118.180976,,,0,
1697,1697,PCH & Atlantic NW,,33.789955,-118.185447,,,0,
1698,1698,PCH & Long Beach Blvd NE,,33.789958,-118.188816,,,0,
1699,1699,Ximeno & Atherton NE,,33.790034,-118.138841,,,0,
1700,1700,Los Coyotes & Ximeno NE,,33.792072,-118.13918,,,0,
1701,1701,Los Coyotes & Park SE,,33.793171,-118.137864,,,0,
1702,1702,Los Coyotes & Clark SW,,33.795843,-118.134346,,,0,
1703,1703,Stearns & Fidler SE,,33.796016,-118.131965,,,0,
1704,1704,Stearns & Stanbridge SE,,33.795947,-118.129428,,,0,
1705,1705,Stearns & Stearnlee SE,,33.79599,-118.127568,,,0,
1706,1706,Stearns & Bellflower SE,,33.795943,-118.125044,,,0,
1707,1707,Stearns & San Anseline SE,,33.795947,-118.121137,,,0,
1708,1708,Stearns & Radnor SE,,33.795956,-118.118517,,,0,
1709,1709,Stearns & Fanwood SE,,33.79592,-118.115713,,,0,
1710,1710,Stearns & Senasac SE,,33.79591,-118.114104,,,0,
1711,1711,Stearns & McNab SE,,33.795904,-118.112119,,,0,
1712,1712,Palo Verde & Stearns NE,,33.795789,-118.107757,,,0,
1713,1713,Palo Verde & Cantel NE,,33.798501,-118.107874,,,0,
1714,1714,Palo Verde & Los Arcos NE,,33.800504,-118.107866,,,0,
1715,1715,Palo Verde & Willow NE,,33.80369,-118.107865,,,0,
1716,1716,Palo Verde & Barbanell NE,,33.805533,-118.10785,,,0,
1717,1717,Palo Verde & Belen NE,,33.809529,-118.107822,,,0,
1718,1718,Palo Verde & Spring NE,,33.810864,-118.107824,,,0,
1719,1719,Palo Verde & Metz NE,,33.815415,-118.107826,,,0,
1720,1720,Palo Verde & Wardlow NE,,33.819138,-118.107818,,,0,
1721,1721,Palo Verde & Los Coyotes NE,,33.820875,-118.107804,,,0,
1722,1722,Palo Verde & Keynote NE,,33.823194,-118.107807,,,0,
1723,1723,Palo Verde & Conant NE,,33.825167,-118.107682,,,0,
1724,1724,Palo Verde & Harco NE,,33.827612,-118.107675,,,0,
1725,1725,Palo Verde & Carson SE,,33.831831,-118.107667,,,0,
1726,1726,Palo Verde & Harvey NE,,33.836257,-118.107741,,,0,
1727,1727,Palo Verde & Centralia NE,,33.839763,-118.107716,,,0,
1728,1728,Palo Verde & Arbor NE,,33.843415,-118.107688,,,0,
1729,1729,Palo Verde & Del Amo NE,,33.847402,-118.107696,,,0,
1730,1730,Palo Verde & Denmead NE,,33.851633,-118.108238,,,0,
1731,1731,Palo Verde & Candlewood NE,,33.853601,-118.108261,,,0,
1732,1732,Palo Verde & Michelson NE,,33.856109,-118.10828,,,0,
1738,1738,Palo Verde & South SW,,33.857851,-118.108428,,,0,
1739,1739,Palo Verde & Michelson SW,,33.855653,-118.108425,,,0,
1740,1740,Palo Verde & Candlewood SW,,33.852985,-118.108408,,,0,
1741,1741,Palo Verde & Denmead NW,,33.851682,-118.108406,,,0,
1742,1742,Palo Verde & Carfax SW,,33.848959,-118.10837,,,0,
1743,1743,Palo Verde & Del Amo SW,,33.846753,-118.107811,,,0,
1744,1744,Palo Verde & Arbor SW,,33.842992,-118.107839,,,0,
1745,1745,Palo Verde & Centralia SW,,33.839343,-118.107844,,,0,
1746,1746,Palo Verde & Harvey Way SW,,33.835732,-118.107882,,,0,
1747,1747,Palo Verde & Carson SW,,33.831879,-118.107897,,,0,
1748,1748,Palo Verde & Harco SW,,33.827269,-118.107897,,,0,
1749,1749,Palo Verde & Conant NW,,33.825345,-118.107898,,,0,
1750,1750,Palo Verde & Keynote SW,,33.822806,-118.107918,,,0,
1752,1752,Palo Verde & Wardlow SW,,33.818377,-118.107942,,,0,
1753,1753,Palo Verde & Metz SW,,33.81494,-118.107908,,,0,
1754,1754,Palo Verde & Spring NW,,33.810949,-118.107934,,,0,
1755,1755,Palo Verde & Barbanell SW,,33.805035,-118.107966,,,0,
1756,1756,Palo Verde & Willow NW,,33.803505,-118.107995,,,0,
1757,1757,Palo Verde & Los Arcos SW,,33.800082,-118.108008,,,0,
1758,1758,Palo Verde & Woodruff SW,,33.797859,-118.108064,,,0,
1759,1759,Stearns & Palo Verde NW,,33.79554,-118.108452,,,0,
1760,1760,Stearns & McNab NW,,33.796049,-118.112985,,,0,
1761,1761,Stearns & Fanwood NW,,33.796059,-118.116954,,,0,
1763,1763,Stearns & San Anseline NW,,33.796059,-118.121108,,,0,
1764,1764,Stearns & Bellflower NW,,33.796132,-118.125874,,,0,
1765,1765,Stearns & Stearnlee NW,,33.796124,-118.128019,,,0,
1766,1766,Stearns & Stanbridge NW,,33.796109,-118.129839,,,0,
1768,1768,Los Coyotes & Stearns SW,,33.795903,-118.13469,,,0,
1769,1769,Los Coyotes & La Cara NW,,33.792892,-118.138592,,,0,
1770,1770,Ximeno & Los Coyotes SE,,33.791622,-118.13936,,,0,
1771,1771,Ximeno & Atherton SW,,33.789545,-118.139034,,,0,
1772,1772,Atherton & Ximeno SE,,33.789763,-118.138554,,,0,
1774,1774,Atherton & Clark SE,,33.789677,-118.1337,,,0,
1776,1776,Atherton & Ashbrook SE,,33.788853,-118.130615,,,0,
1777,1777,Atherton & Litchfield SE,,33.788161,-118.128754,,,0,
1778,1778,Atherton & Stearnlee SE,,33.788188,-118.126365,,,0,
1779,1779,Atherton & Bellflower SE,,33.788534,-118.123911,,,0,
1780,1780,Atherton & Chatwin SE,,33.788687,-118.122193,,,0,
1781,1781,Atherton & Lave SE,,33.788675,-118.120018,,,0,
1783,1783,Atherton & Fanwood SE,,33.788589,-118.115859,,,0,
1784,1784,Atherton & McNab SE,,33.788564,-118.112375,,,0,
1785,1785,Atherton & Carfax SE,,33.7886,-118.10972,,,0,
1786,1786,Studebaker & Atherton NE,,33.789057,-118.099167,,,0,
1787,1787,Studebaker & Los Santos NE,,33.792481,-118.099126,,,0,
1788,1788,Studebaker & Stearns NE,,33.796371,-118.099083,,,0,
1790,1790,Studebaker & Los Arcos NE,,33.800219,-118.099066,,,0,
1791,1791,Studebaker & Willow NE,,33.803566,-118.099048,,,0,
1792,1792,Studebaker & Barrios NE,,33.807146,-118.099018,,,0,
1793,1793,Studebaker & Spring NE,,33.810877,-118.099029,,,0,
1794,1794,Studebaker & Mezzanine NE,,33.814884,-118.099059,,,0,
1795,1795,Studebaker & Wardlow SE,,33.818579,-118.099073,,,0,
1796,1796,Studebaker & Keynote NE,,33.82313,-118.099039,,,0,
1797,1797,Studebaker & Harco NE,,33.827861,-118.099028,,,0,
1798,1798,Los Coyotes & Parkcrest NE,,33.830526,-118.099264,,,0,
1799,1799,Carson & LB Towne Center SE,,33.831245,-118.087419,,,0,
1800,1800,Carson & Pioneer SE,,33.831326,-118.081197,,,0,
1801,1801,Carson & Violeta SE,,33.831369,-118.078628,,,0,
1802,1802,Carson & Juan SE,,33.831337,-118.073589,,,0,
1803,1803,Wardlow & Claremore NW,,33.817734,-118.078428,,,0,
1804,1804,Civic Center & Ibex NE,,33.82962,-118.072652,,,0,
1805,1805,Wardlow & Volk NW,,33.818932,-118.094827,,,0,
1806,1806,Civic Center & Joliet NE,,33.829619,-118.074617,,,0,
1807,1807,Norwalk & Civic Center NW,,33.830044,-118.072104,,,0,
1808,1808,Norwalk & 221st SW,,33.827447,-118.071997,,,0,
1809,1809,Carson & Juan SW,,33.831368,-118.075715,,,0,
1810,1810,Norwalk & 226th SW,,33.823407,-118.071954,,,0,
1811,1811,Norwalk & Ring SW,,33.821522,-118.071916,,,0,
1812,1812,Norwalk & Wardlow NW,,33.818195,-118.07194,,,0,
1813,1813,Studebaker & Los Santos SW,,33.791969,-118.099394,,,0,
1814,1814,Atherton & Studebaker NW,,33.788765,-118.099529,,,0,
1815,1815,Atherton & Vuelta Grande NW,,33.78882,-118.103142,,,0,
1816,1816,Atherton & Palo Verde NE,,33.788833,-118.107585,,,0,
1818,1818,Atherton & McNab NW,,33.788829,-118.112838,,,0,
1820,1820,Atherton & Fanwood NW,,33.78883,-118.116595,,,0,
1822,1822,Atherton & Chatwin NE,,33.788842,-118.122234,,,0,
1823,1823,Atherton & Bellflower NW,,33.788493,-118.125055,,,0,
1824,1824,Atherton & Stearnlee NW,,33.788303,-118.126968,,,0,
1825,1825,Atherton & Litchfield NW,,33.788408,-118.129008,,,0,
1826,1826,Atherton & Ashbrook NW,,33.789189,-118.130961,,,0,
1828,1828,Atherton & Clark NE,,33.789853,-118.133769,,,0,
1829,1829,Atherton & Park NW,,33.789951,-118.13709,,,0,
1830,1830,Residence Inn (NB Direction),,33.75856,-118.20198,,,0,
1831,1831,Clark & Atherton SW,,33.789579,-118.134112,,,0,
1832,1832,Clark & Clark Terrace,,33.787289,-118.134149,,,0,
1838,1838,Harbor Plaza & Queens Hwy NE,,33.754004,-118.195356,,,0,
1840,1840,Maya Hotel (NB Direction),,33.755171,-118.196805,,,0,
1841,1841,Shoreline & Village W,,33.760525,-118.189445,,,0,
1842,1842,Spring & Studebaker NW,,33.810565,-118.099342,,,0,
1843,1843,Spring & Nipomo NW,,33.810583,-118.102264,,,0,
1844,1844,Spring & Palo Verde NW,,33.810619,-118.108199,,,0,
1846,1846,Spring & Woodruff NW,,33.810659,-118.115523,,,0,
1847,1847,Spring & Los Coyotes NW,,33.810636,-118.117054,,,0,
1848,1848,Spring & San Anseline NW,,33.810623,-118.121649,,,0,
1849,1849,Spring & Bellflower NW,,33.810655,-118.125481,,,0,
1850,1850,Spring & Charlemagne NW,,33.810663,-118.130879,,,0,
1851,1851,Spring & Clark NW,,33.810732,-118.13444,,,0,
1852,1852,Spring & Airport Pl NE,,33.811445,-118.136524,,,0,
1853,1853,Willow & Palm NW,,33.804558,-118.155464,,,0,
1854,1854,Willow & Temple NW,,33.804558,-118.159661,,,0,
1855,1855,Willow & Junipero NW,,33.804553,-118.163673,,,0,
1856,1856,Willow & Cherry NW,,33.80453,-118.168064,,,0,
1857,1857,Willow & Walnut NW,,33.804464,-118.172438,,,0,
1858,1858,Willow & Orange NW,,33.804397,-118.176951,,,0,
1859,1859,Willow & California NW,,33.804448,-118.181414,,,0,
1860,1860,Willow & Atlantic SE,,33.804291,-118.184748,,,0,
1861,1861,Willow & Lewis SW,,33.804224,-118.179972,,,0,
1862,1862,Willow & Orange SW,,33.804229,-118.176618,,,0,
1863,1863,Willow & Walnut SE,,33.804257,-118.170539,,,0,
1864,1864,Willow & Cherry SE,,33.804309,-118.1673,,,0,
1865,1865,Willow & Junipero SE,,33.80432,-118.162952,,,0,
1866,1866,Willow & Temple SE,,33.804315,-118.158666,,,0,
1867,1867,Willow & Palm SE,,33.804326,-118.154736,,,0,
1868,1868,Willow & Redondo SE,,33.804314,-118.150747,,,0,
1869,1869,Willow & Grand SE,,33.803925,-118.147853,,,0,
1870,1870,Lakewood & Willow NE,,33.803802,-118.142537,,,0,
1871,1871,Spring & Lakewood SE,,33.812469,-118.138805,,,0,
1872,1872,Spring & Airport Pl SE,,33.811177,-118.136587,,,0,
1873,1873,Spring & Clark SE,,33.810423,-118.133669,,,0,
1875,1875,Spring & Bellflower SE,,33.810422,-118.125049,,,0,
1877,1877,Spring & Los Coyotes SE,,33.810441,-118.116968,,,0,
1878,1878,Spring & Woodruff SE,,33.810413,-118.113972,,,0,
1879,1879,Spring & Snowden SE,,33.810366,-118.110806,,,0,
1880,1880,Spring & Palo Verde SE,,33.810392,-118.107553,,,0,
1881,1881,Spring & Nipomo SE,,33.810356,-118.101598,,,0,
1884,1884,Wardlow & Stevely SE,,33.818747,-118.092414,,,0,
1885,1885,Wardlow & Claremore SE,,33.817581,-118.077733,,,0,
1886,1886,Norwalk & Wardlow NE,,33.818204,-118.071737,,,0,
1887,1887,Norwalk & Torin NE,,33.821091,-118.071712,,,0,
1888,1888,Norwalk & 226th SE,,33.823789,-118.071727,,,0,
1890,1890,Norwalk & 221st SE,,33.827372,-118.071832,,,0,
1892,1892,Carson & Norwalk NW,,33.83156,-118.072484,,,0,
1893,1893,Carson & Juan NW,,33.831571,-118.076281,,,0,
1894,1894,Carson & Violeta NE,,33.831563,-118.079692,,,0,
1896,1896,Norwalk & Carson NE,,33.831824,-118.071971,,,0,
1897,1897,Norwalk & 214th NE,,33.835368,-118.071981,,,0,
1898,1898,Norwalk & Centralia NE,,33.839103,-118.072017,,,0,
1899,1899,Norwalk & 207th NE,,33.842631,-118.072046,,,0,
1900,1900,Norwalk & Del Amo NE,,33.846602,-118.071985,,,0,
1901,1901,Norwalk & Yearling NE,,33.849699,-118.072033,,,0,
1902,1902,Norwalk & Flora Vista NE,,33.854104,-118.072113,,,0,
1903,1903,South & Norwalk NW,,33.858623,-118.072827,,,0,
1905,1905,South & Elaine NW,,33.858584,-118.076967,,,0,
1906,1906,South & Pioneer NE,,33.858578,-118.082573,,,0,
1907,1907,South & Jersey NE,,33.858559,-118.085633,,,0,
1908,1908,South & Target (Cerritos) N,,33.858552,-118.087863,,,0,
1909,1909,Gridley & South NE,,33.85863,-118.09073,,,0,
1911,1911,183rd & Gridley NW,,33.865806,-118.091728,,,0,
1912,1912,183rd & Los Cerritos NW,,33.865762,-118.095176,,,0,
1915,1915,Gridley & 187th NE,,33.861581,-118.090822,,,0,
1916,1916,Gridley & 187th SW,,33.860748,-118.091083,,,0,
1917,1917,South & Gridley SE,,33.85827,-118.090173,,,0,
1918,1918,South & Jersey S,,33.858372,-118.085827,,,0,
1919,1919,South & Pioneer SE,,33.858347,-118.08174,,,0,
1920,1920,South & Elaine SW,,33.858436,-118.076467,,,0,
1922,1922,South & Norwalk SW,,33.858458,-118.072709,,,0,
1923,1923,Norwalk & Flora Vista NW,,33.854512,-118.072369,,,0,
1924,1924,Norwalk & Yearling SW,,33.849113,-118.072272,,,0,
1925,1925,Norwalk & Del Amo SW,,33.845774,-118.072223,,,0,
1926,1926,Norwalk & 207th NW,,33.84254,-118.072191,,,0,
1927,1927,Norwalk & Centralia SW,,33.83846,-118.072178,,,0,
1928,1928,Norwalk & 214th NW,,33.835388,-118.072155,,,0,
1934,1934,Studebaker & Harco NW,,33.828426,-118.099255,,,0,
1936,1936,Wardlow & Delta SE,,33.823581,-118.210916,,,0,
1938,1938,Wardlow & River SW,,33.824181,-118.222463,,,0,
1939,1939,Wardlow & Delta NE,,33.823817,-118.210857,,,0,
1940,1940,223rd & Marathon SW,,33.824241,-118.233225,,,0,
1941,1941,Wardlow & McHelen NE,,33.824423,-118.222191,,,0,
1942,1942,223rd & Wilmington SE,,33.824114,-118.241418,,,0,
1943,1943,223rd & Marathon NW,,33.824329,-118.2333,,,0,
1945,1945,223rd & Wilmington NE,,33.8244,-118.241235,,,0,
1947,1947,223rd & Lucerne NW,,33.824374,-118.250997,,,0,
1949,1949,223rd & Edgar NE,,33.824358,-118.254706,,,0,
1950,1950,223rd & Avalon SE,,33.82409,-118.263093,,,0,
1951,1951,223rd & Bonita NW,,33.824365,-118.259601,,,0,
1954,1954,223rd & Figueroa SW,,33.824311,-118.286228,,,0,
1956,1956,223rd & Vermont SE,,33.824294,-118.289805,,,0,
1959,1959,223rd & Main NW,,33.824425,-118.276517,,,0,
1963,1963,223rd & Figueroa NW,,33.824555,-118.286475,,,0,
1965,1965,223rd & Vermont NW,,33.824555,-118.290718,,,0,
1972,1972,Carson & LB Towne Center - Walmart NE,,33.83153,-118.089921,,,0,
1996,1996,Los Cerritos Center Layover,,33.865569,-118.096333,,,0,
1998,1998,Santa Fe & Carson NW,,33.831885,-118.217068,,,0,
2000,2000,Carson & Santa Fe SE,,33.831681,-118.216582,,,0,
2001,2001,2727 Del Amo Blvd N,,33.846763,-118.21454,,,0,
2002,2002,2660 Del Amo Blvd S,,33.846526,-118.214765,,,0,
2003,2003,Del Amo & Rancho Way NW,,33.84677,-118.224114,,,0,
2004,2004,Del Amo & Fordyce SW,,33.846544,-118.223985,,,0,
2005,2005,Del Amo & Wilmington NW,,33.84691,-118.234671,,,0,
2006,2006,Del Amo & Wilmington SW,,33.846621,-118.23513,,,0,
2007,2007,Del Amo & Alvo NW,,33.846926,-118.23895,,,0,
2008,2008,Del Amo & Alvo SE,,33.846706,-118.238422,,,0,
2009,2009,Del Amo & Tajauta NW,,33.846922,-118.244002,,,0,
2010,2010,Del Amo & Tajauta SE,,33.846702,-118.24347,,,0,
2011,2011,Del Amo & Central NW,,33.846911,-118.248876,,,0,
2012,2012,Del Amo & Central SE,,33.846666,-118.248261,,,0,
2013,2013,Del Amo & Tillman NW,,33.846864,-118.25376,,,0,
2014,2014,Del Amo & Tillman SE,,33.846681,-118.253213,,,0,
2015,2015,Del Amo & Leapwood NW,,33.8469,-118.259014,,,0,
2016,2016,Del Amo & Leapwood SE,,33.84667,-118.258494,,,0,
2017,2017,Avalon & Del Amo NE,,33.84835,-118.264681,,,0,
2018,2018,Del Amo & Avalon SE,,33.847369,-118.263715,,,0,
2019,2019,Avalon & Elsmere NE,,33.853571,-118.265358,,,0,
2020,2020,Avalon & Elsmere NW,,33.853434,-118.26571,,,0,
2021,2021,Avalon & 189th NE,,33.859266,-118.265957,,,0,
2022,2022,Avalon & 189th SW,,33.858659,-118.266298,,,0,
2023,2023,Avalon & 184th NE,,33.863347,-118.265945,,,0,
2024,2024,Avalon & 184th SW,,33.862833,-118.266333,,,0,
2025,2025,Victoria & Avalon SE,,33.866884,-118.265722,,,0,
2026,2026,Avalon & Victoria SW,,33.866706,-118.266362,,,0,
2027,2027,Victoria & Rainsbury SW,,33.86702,-118.261273,,,0,
2028,2028,Victoria & Rainsbury NW,,33.867224,-118.261416,,,0,
2030,2030,Victoria & Tamcliff NW,,33.867336,-118.257773,,,0,
2031,2031,Del Amo & Oregon SW,,33.846538,-118.200443,,,0,
2032,2032,Carson & LB Towne Center - Walmart SE,,33.831223,-118.089633,,,0,
2033,2033,Marina & 2nd SE,,33.756957,-118.1123,,,0,
2035,2035,Carson & Arnold Center NW,,33.831844,-118.230744,,,0,
2036,2036,Carson & Arnold Center SE,,33.831656,-118.2303,,,0,
2037,2037,Carson & Wilmington NW,,33.831867,-118.239949,,,0,
2038,2038,Carson & Wilmington SW,,33.83161,-118.239857,,,0,
2039,2039,Carson & Martin NW,,33.831832,-118.244378,,,0,
2040,2040,Carson & Martin SE,,33.831617,-118.243855,,,0,
2041,2041,Carson & Vera NW,,33.831824,-118.248896,,,0,
2042,2042,Carson & Vera SE,,33.831618,-118.248196,,,0,
2043,2043,Carson & Perry NW,,33.831801,-118.253073,,,0,
2044,2044,Carson & Acarus SE,,33.831597,-118.25081,,,0,
2045,2045,Carson & Civic Center NW,,33.831786,-118.259637,,,0,
2046,2046,Carson & Bonita SE,,33.831569,-118.259051,,,0,
2047,2047,Carson & Avalon NW,,33.831767,-118.264071,,,0,
2048,2048,Carson & Avalon SE,,33.831538,-118.263483,,,0,
2049,2049,Carson & Grace NW,,33.831753,-118.26827,,,0,
2050,2050,Carson & Grace SE,,33.831541,-118.26774,,,0,
2051,2051,Carson & Dolores NE,,33.831743,-118.272286,,,0,
2052,2052,Carson & Dolores SE,,33.831526,-118.272093,,,0,
2053,2053,Carson & Orrick NW,,33.83171,-118.274663,,,0,
2054,2054,Carson & Main SE,,33.831517,-118.277639,,,0,
2055,2055,Carson & Main NW,,33.831723,-118.278351,,,0,
2056,2056,Carson & Moneta SE,,33.831535,-118.281524,,,0,
2057,2057,Carson & Moneta NW,,33.831721,-118.281965,,,0,
2058,2058,Carson & Figueroa SE,,33.831539,-118.285811,,,0,
2059,2059,Carson & Figueroa NW,,33.831651,-118.286403,,,0,
2062,2062,Carson & Vermont SW,,33.831569,-118.290576,,,0,
2071,2071,Carson & Vermont NE,,33.83167,-118.289984,,,0,
2074,2074,Victoria & Birchknoll NW,,33.867475,-118.252573,,,0,
2075,2075,Victoria & Birchknoll SE,,33.867295,-118.252046,,,0,
2076,2076,Victoria & Cedar Bluff SW,,33.867161,-118.255413,,,0,
2147,2147,PCH & Santa Fe SE,,33.789793,-118.215111,,,0,
2201,2201,Downey & Jefferson SE,,33.892524,-118.151293,,,0,
2202,2202,Downey & Madison NW,,33.891207,-118.15153,,,0,
2203,2203,Downey & Somerset NE,,33.896708,-118.151333,,,0,
2204,2204,Downey & Alondra SW,,33.88787,-118.151552,,,0,
2205,2205,Downey & Contreras SE,,33.900869,-118.151365,,,0,
2206,2206,Downey & Jackson SW,,33.885215,-118.151438,,,0,
2207,2207,Downey & Rosecrans SE,,33.904175,-118.151335,,,0,
2209,2209,Downey & Century NE,,33.90707,-118.151441,,,0,
2213,2213,Downey & Somerset Ranch NE,,33.913463,-118.152336,,,0,
2214,2214,Imperial & Lakewood NW,,33.917136,-118.137967,,,0,
2215,2215,Gardendale & Downey SE,,33.914736,-118.151531,,,0,
2216,2216,Imperial & Barlin NW,,33.91821,-118.140625,,,0,
2217,2217,Gardendale & Somerset Ranch SW,,33.913597,-118.149144,,,0,
2218,2218,Imperial & Brookshire NW,,33.92005,-118.143964,,,0,
2219,2219,Gardendale & Barlin SE,,33.911786,-118.14527,,,0,
2220,2220,Downey & Imperial SW,,33.921229,-118.147065,,,0,
2221,2221,PCH & 7th NE,,33.775543,-118.122761,,,0,
2222,2222,Downey & Gardendale NW,,33.915063,-118.151695,,,0,
2223,2223,Downey & Alondra SE,,33.888118,-118.151228,,,0,
2224,2224,Downey & Somerset Ranch NW,,33.913309,-118.152509,,,0,
2228,2228,Downey & Klondike SW,,33.908851,-118.151868,,,0,
2229,2229,Downey & Rosecrans NW,,33.903944,-118.151601,,,0,
2232,2232,Downey & 2nd NW,,33.898415,-118.151564,,,0,
2234,2234,Downey & Somerset SW,,33.896166,-118.151547,,,0,
2299,2299,Lakewood Blvd Station - East,,33.913138,-118.140387,,,0,
2301,2301,Wardlow & Magnolia NE,,33.819081,-118.197824,,,0,
2384,2384,Ocean & Loma NW,,33.76097,-118.151091,,,0,
2401,2401,Artesia & Acacia SE,,33.874456,-118.224266,,,0,
2402,2402,Artesia & Santa Fe SE,,33.874126,-118.213958,,,0,
2403,2403,Long Beach Blvd & Cambridge NE,,33.865881,-118.200142,,,0,
2404,2404,Long Beach Blvd & Harcourt NE,,33.867565,-118.20065,,,0,
2406,2406,Long Beach Blvd & Bort NE,,33.870723,-118.201544,,,0,
2407,2407,Artesia & Long Beach Blvd NW,,33.874442,-118.203481,,,0,
2408,2408,Artesia & Harbor NW,,33.874412,-118.207521,,,0,
2409,2409,Artesia & Santa Fe NE,,33.874375,-118.214464,,,0,
2410,2410,Acacia & Artesia NE,,33.874807,-118.224785,,,0,
2411,2411,Acacia & Walnut SW,,33.876206,-118.224948,,,0,
2412,2412,Queensway Dr & State Univ S,,33.763679,-118.201321,,,0,
2413,2413,Golden & Seaside NE,,33.766215,-118.201694,,,0,
2414,2414,Ocean & Golden SE,,33.767227,-118.201272,,,0,
2415,2415,Pacific & Ocean NE,,33.767384,-118.193585,,,0,
2423,2423,Ocean & Long Beach NW,,33.767029,-118.189957,,,0,
2424,2424,Ocean & Pine NE,,33.767153,-118.192109,,,0,
2427,2427,Golden & Ocean SW,,33.767015,-118.202015,,,0,
2429,2429,3rd & Promenade NW,,33.770572,-118.191428,,,0,
2434,2434,Pine & The Paseo SW,,33.765557,-118.192424,,,0,
2435,2435,Pine & Convention Ctr SE,,33.764252,-118.192296,,,0,
2436,2436,Pine & Seaside NE,,33.765951,-118.192323,,,0,
2444,2444,6th & Pine SE,,33.774114,-118.192181,,,0,
2448,2448,Long Beach Blvd & 1st SW,,33.76788,-118.189548,,,0,
2449,2449,Wardlow & Pacific SW,,33.818909,-118.193995,,,0,
2450,2450,Wardlow & Long Beach Blvd SE,,33.81877,-118.188929,,,0,
2451,2451,Wardlow & Atlantic SE,,33.818847,-118.18474,,,0,
2452,2452,Wardlow & California SW,,33.818845,-118.180488,,,0,
2454,2454,Wardlow & Orange SE,,33.818851,-118.176607,,,0,
2456,2456,Wardlow & Walnut SE,,33.818893,-118.171721,,,0,
2458,2458,Spring & Cherry SE,,33.811602,-118.166959,,,0,
2459,2459,Spring & Junipero SW,,33.811593,-118.163539,,,0,
2460,2460,Spring & Temple SE,,33.811443,-118.158667,,,0,
2461,2461,Spring & Redondo SW,,33.810518,-118.151538,,,0,
2463,2463,Redondo & Hill SW,,33.796938,-118.151495,,,0,
2464,2464,Redondo & Willow SW,,33.804185,-118.151412,,,0,
2465,2465,Redondo & Burnett SW,,33.801285,-118.151465,,,0,
2469,2469,Redondo & PCH NW,,33.790153,-118.151962,,,0,
2470,2470,Redondo & 15th SW,,33.785597,-118.15252,,,0,
2471,2471,Redondo & Anaheim NW,,33.783298,-118.152487,,,0,
2472,2472,Redondo & Anaheim SW,,33.781274,-118.152535,,,0,
2473,2473,Redondo & 10th NW,,33.779271,-118.152505,,,0,
2474,2474,Redondo & 8th SW,,33.777065,-118.152504,,,0,
2475,2475,Redondo & 7th SW,,33.77491,-118.152507,,,0,
2477,2477,Redondo & 4th SW,,33.771539,-118.152521,,,0,
2478,2478,Redondo & Hill SE,,33.797036,-118.151346,,,0,
2479,2479,Redondo & 3rd NW,,33.768354,-118.152512,,,0,
2481,2481,Redondo & Broadway NW,,33.764741,-118.152531,,,0,
2482,2482,Redondo & Broadway NE,,33.764675,-118.152357,,,0,
2484,2484,Redondo & 3rd NE,,33.76828,-118.152386,,,0,
2486,2486,Redondo & 4th NE,,33.772117,-118.152354,,,0,
2488,2488,Redondo & 7th NE,,33.775608,-118.152347,,,0,
2489,2489,Redondo & 8th NE,,33.777293,-118.152353,,,0,
2490,2490,Redondo & 10th NE,,33.779139,-118.152376,,,0,
2491,2491,Redondo & 11th NE,,33.781563,-118.152361,,,0,
2492,2492,Redondo & Anaheim NE,,33.782964,-118.152354,,,0,
2493,2493,Redondo & 15th NE,,33.785943,-118.152346,,,0,
2494,2494,Redondo & PCH NE,,33.790189,-118.151755,,,0,
2496,2496,Redondo & Hathway SE,,33.794721,-118.151487,,,0,
2498,2498,Redondo & Burnett SE,,33.801359,-118.151321,,,0,
2499,2499,Spring & Redondo NW,,33.810712,-118.151782,,,0,
2500,2500,Spring & Temple NE,,33.811693,-118.158641,,,0,
2501,2501,Spring & Freeway Access NW,,33.811755,-118.165241,,,0,
2502,2502,Wardlow & Cherry NW,,33.81898,-118.168406,,,0,
2504,2504,Wardlow & Walnut NW,,33.818983,-118.172287,,,0,
2506,2506,Wardlow & Orange NW,,33.818982,-118.176682,,,0,
2508,2508,Wardlow & California NE,,33.818976,-118.180564,,,0,
2509,2509,Wardlow & Atlantic NW,,33.818968,-118.185916,,,0,
2510,2510,Wardlow & Long Beach Blvd NW,,33.818996,-118.189083,,,0,
2511,2511,Wardlow & Pacific NE,,33.819069,-118.193564,,,0,
2514,2514,Queens Hwy & Catalina Classic Cruises,,33.752985,-118.193162,,,0,
2520,2520,South & Med Center S,,33.860105,-118.153522,,,0,
2522,2522,South & Across Medical Center N,,33.860302,-118.154168,,,0,
2530,2530,Broadway & Cedar SE,,33.76924,-118.194735,,,0,
2600,2600,McHelen & Wardlow NW,,33.82463,-118.222375,,,0,
2680,2680,PCH & Cherry NE (Storage Facility),,33.789918,-118.166799,,,0,
2700,2700,Artesia & Long Beach Blvd SE,,33.87419,-118.202214,,,0,
2701,2701,Artesia & Butler SW,,33.874137,-118.197625,,,0,
2791,2791,Atlantic & 33rd NW,,33.817143,-118.185088,,,0,
2827,2827,Paramount & All America City,,33.900998,-118.160285,,,0,
2828,2828,Alondra & Vermont SE,,33.889054,-118.162635,,,0,
2829,2829,Paramount & Alondra NW,,33.88947,-118.159964,,,0,
2830,2830,Alondra & Vermont NE,,33.889235,-118.163038,,,0,
2831,2831,Paramount & Madison SE,,33.891043,-118.159991,,,0,
2832,2832,Paramount & Madison SW,,33.890848,-118.160229,,,0,
2833,2833,Paramount & Adams NE,,33.895032,-118.160026,,,0,
2834,2834,Paramount & Jefferson NW,,33.893046,-118.16023,,,0,
2835,2835,Paramount & Somerset NE,,33.896915,-118.160039,,,0,
2836,2836,Paramount & Somerset SW,,33.895927,-118.16025,,,0,
2837,2837,Paramount & 3rd NE,,33.899343,-118.160056,,,0,
2838,2838,Paramount & 3rd SW,,33.898826,-118.160267,,,0,
2839,2839,Lakewood & Rosecrans SW,,33.903382,-118.143055,,,0,
2840,2840,Rosecrans & RR-Xing SE,,33.903567,-118.163888,,,0,
2841,2841,Rosecrans & RR-Xing NW,,33.903844,-118.163991,,,0,
2842,2842,Rosecrans & Paramount SW,,33.903575,-118.1608,,,0,
2843,2843,Rosecrans & Paramount NW,,33.903774,-118.16076,,,0,
2844,2844,Rosecrans & Anderson SE,,33.903605,-118.155429,,,0,
2845,2845,Rosecrans & Anderson NE,,33.903801,-118.155432,,,0,
2846,2846,Rosecrans & Downey SE,,33.903632,-118.151152,,,0,
2847,2847,Rosecrans & Downey NW,,33.903821,-118.15175,,,0,
2848,2848,Rosecrans & Castana SE,,33.903618,-118.146101,,,0,
2849,2849,Rosecrans & Castana NE,,33.903848,-118.146747,,,0,
2851,2851,Lakewood & Century NW,,33.90257,-118.143032,,,0,
2994,2994,Alamitos Bay & Restrooms - Drop Off Only,,33.748244,-118.115201,,,0,
2996,2996,Alamitos Bay & Aqualink Dock Drop-Off Only,,33.748152,-118.115212,,,0,
2998,2998,Shoreline & Pine SE,,33.762724,-118.19247,,,0,
3003,3003,Atlantic & Broadway NE,,33.769457,-118.184978,,,0,
3007,3007,Golden & 4th SE,,33.771609,-118.201782,,,0,
3013,3013,Candlewood & Lakewood NW,,33.853861,-118.143014,,,0,
3014,3014,Candlewood & Hayter NE,,33.853852,-118.145945,,,0,
3016,3016,Lakewood & South SW,,33.859451,-118.142674,,,0,
3017,3017,Lakewood & Michelson SW,,33.857241,-118.142638,,,0,
3018,3018,Alamitos Bay Landing SW,,33.747639,-118.114268,,,0,
3028,3028,Willow & Santa Fe SE,,33.804293,-118.215126,,,0,
3030,3030,CTLD @ Parking Structure North S,,33.76482,-118.199522,,,0,
3031,3031,Carson & Palo Verde,,33.832152,-118.107354,,,0,
3032,3032,Livingston & Termino NW,,33.760652,-118.146181,,,0,
3033,3033,Studebaker & Reservoir Hill Park NE,,33.879308,-118.099933,,,0,
3035,3035,Bellflower & Stearns (Layover) SE,,33.795413,-118.125171,,,0,
3039,3039,PCH & Marina Shores Ctr NW,,33.754693,-118.108297,,,0,
3044,3044,Artesia & Atlantic SE,,33.874267,-118.185776,,,0,
3045,3045,Artesia & Myrtle SE,,33.874405,-118.180903,,,0,
3047,3047,Artesia & Myrtle NW,,33.874754,-118.182527,,,0,
3048,3048,PCH & Santa Fe NW,,33.789891,-118.216487,,,0,
3049,3049,PCH & Technology Pl NW,,33.789935,-118.221507,,,0,
3051,3051,Paramount & Candlewood NE,,33.854046,-118.159728,,,0,
3052,3052,South & Downey SW,,33.860068,-118.152017,,,0,
3053,3053,PCH & Hayes SW,,33.789811,-118.218837,,,0,
3054,3054,Anaheim & Chestnut SW,,33.782526,-118.195846,,,0,
3055,3055,Artesia & Orange NW,,33.874708,-118.177682,,,0,
3057,3057,Paramount & 55th Way E,,33.856845,-118.159744,,,0,
3060,3060,Bellflower & Alondra SE,,33.889182,-118.125216,,,0,
3061,3061,Alondra & Eucalyptus SE,,33.889307,-118.122126,,,0,
3062,3062,Alondra & Woodruff NE,,33.889436,-118.117025,,,0,
3063,3063,Alondra & Eucalyptus NW,,33.889441,-118.122142,,,0,
3064,3064,Bellflower & Harvard SW,,33.888278,-118.125353,,,0,
3065,3065,Studebaker & Walkerton SW,,33.826286,-118.09916,,,0,
3067,3067,Elm & Broadway NW,,33.769401,-118.187768,,,0,
3072,3072,Shoreline & Cedar NW,,33.764231,-118.195076,,,0,
3073,3073,Shoreline & Queensway SE,,33.764586,-118.196433,,,0,
3075,3075,Artesia & 710 Fwy NE,,33.874481,-118.192519,,,0,
3077,3077,Elm & 3rd (Midblock),,33.770234,-118.187615,,,0,
3079,3079,Carson & Palo Verde NW,,33.832335,-118.108042,,,0,
3080,3080,Artesia & Orange SE,,33.874483,-118.177139,,,0,
3081,3081,Artesia & Walnut SE,,33.874506,-118.172872,,,0,
3082,3082,Artesia & Walnut NE,,33.874755,-118.172927,,,0,
3083,3083,Artesia & RR-Xing SE,,33.874491,-118.164224,,,0,
3084,3084,Artesia & RR-Xing NW,,33.874849,-118.164493,,,0,
3085,3085,Artesia & Cherry SE,,33.874517,-118.167702,,,0,
3086,3086,Artesia & Paramount SE,,33.874527,-118.159335,,,0,
3087,3087,Artesia & Paramount NW,,33.874821,-118.160522,,,0,
3088,3088,Artesia & Obispo SE,,33.874534,-118.155339,,,0,
3089,3089,Artesia & Obispo NW,,33.874877,-118.155898,,,0,
3090,3090,Artesia & Downey SE,,33.874593,-118.150912,,,0,
3091,3091,Artesia & Downey NE,,33.874845,-118.151084,,,0,
3092,3092,Artesia & Coke SE,,33.874692,-118.147263,,,0,
3093,3093,Artesia & Coke NE,,33.874856,-118.146941,,,0,
3094,3094,Artesia & Virginia SW,,33.874719,-118.139996,,,0,
3095,3095,Artesia & Virginia NE,,33.874894,-118.139429,,,0,
3096,3096,Artesia & Lakewood NW,,33.874923,-118.143071,,,0,
3097,3097,Artesia & Lakewood SW,,33.874661,-118.142875,,,0,
3098,3098,Artesia & Clark SE,,33.874687,-118.133573,,,0,
3099,3099,Artesia & Clark NW,,33.874914,-118.134261,,,0,
3100,3100,Artesia & Ardmore SE,,33.874706,-118.12885,,,0,
3101,3101,Artesia & Ardmore NE,,33.874928,-118.128957,,,0,
3102,3102,Artesia & Bellflower SE,,33.874708,-118.12483,,,0,
3103,3103,Artesia & Bellflower NW,,33.874938,-118.125737,,,0,
3104,3104,Artesia & Bixby SW,,33.874516,-118.121337,,,0,
3105,3105,Artesia & Bixby NE,,33.874473,-118.120984,,,0,
3106,3106,Artesia & Woodruff SE,,33.872834,-118.116935,,,0,
3107,3107,Artesia & Woodruff NW,,33.872984,-118.117927,,,0,
3108,3108,Artesia & Cherry NW,,33.874767,-118.169303,,,0,
3109,3109,Artesia & Canehill SE,,33.872827,-118.110882,,,0,
3112,3112,Artesia & Studebaker NW,,33.873024,-118.100766,,,0,
3113,3113,Artesia & Canehill  NE,,33.872933,-118.111093,,,0,
3140,3140,PCH & Caspian NE,,33.789965,-118.211493,,,0,
3150,3150,Villages & Cabrillo,,33.792724,-118.222183,,,0,
4002,4002,First & Shelter B N,,33.76816,-118.190667,,,0,
4003,4003,1st & Shelter C N,,33.768155,-118.191641,,,0,
4004,4004,1st & Shelter D N,,33.768137,-118.192162,,,0,
4005,4005,Pacific & Broadway NE,,33.769765,-118.193607,,,0,
4006,4006,Pacific & 3rd NE,,33.770893,-118.193592,,,0,
4007,4007,Pacific & 5th NE,,33.773339,-118.193583,,,0,
4008,4008,1st & Shelter F S,,33.767997,-118.191296,,,0,
4009,4009,1st & Shelter E S,,33.767957,-118.192011,,,0,
4010,4010,Long Beach Blvd & 3rd SE,,33.770423,-118.18926,,,0,
4011,4011,1st & Shelter G S,,33.768017,-118.190584,,,0,
4012,4012,1st & Shelter H S,,33.76802,-118.189732,,,0,
4013,4013,Long Beach Blvd & 4th SE,,33.771613,-118.189253,,,0,
4014,4014,Long Beach Blvd & 5th NE,,33.773324,-118.189254,,,0,
4016,4016,Long Beach Blvd & 6th SW,,33.77361,-118.18958,,,0,
4017,4017,Long Beach Bl & 5th St W,,33.772497,-118.189574,,,0,
4018,4018,Long Beach Blvd & 3rd SW,,33.770252,-118.189599,,,0,
4021,4021,Santa Fe & 21st NE,,33.795656,-118.215351,,,0,
4022,4022,Carson & Via Oro SW,,33.831643,-118.212869,,,0,
4023,4023,Via Oro & 3901 W,,33.830425,-118.212679,,,0,
4024,4024,Santa Fe & Willard SW,,33.794101,-118.215574,,,0,
4025,4025,Anaheim & Magnolia SE,,33.782574,-118.197728,,,0,
4029,4029,Catalina Landing N,,33.764015,-118.19984,,,0,
4031,4031,Los Altos & PCH SE,,33.782965,-118.132104,,,0,
4033,4033,Long Beach Blvd & 32nd NW,,33.815633,-118.189445,,,0,
4036,4036,PCH & 5th SW,,33.74592,-118.105046,,,0,
4037,4037,PCH & Marketplace E,,33.756495,-118.109534,,,0,
4038,4038,PCH & Marvista NE,,33.74681,-118.105357,,,0,
4039,4039,PCH & 1st SE,,33.749194,-118.105817,,,0,
4040,4040,PCH & Studebaker NE,,33.754319,-118.107514,,,0,
4043,4043,Atlantic & 27th SW,,33.805678,-118.185179,,,0,
4044,4044,Orange & Mobile Park Home SE,,33.884182,-118.177403,,,0,
4045,4045,Anaheim & Long Beach Blvd NW,,33.782676,-118.189777,,,0,
4047,4047,Anaheim & Magnolia NW,,33.78266,-118.198287,,,0,
4048,4048,7th & Euclid SE,,33.775278,-118.148921,,,0,
4049,4049,Via Oro & 3900 E,,33.830399,-118.212473,,,0,
4050,4050,Carson & Via Oro NW,,33.831843,-118.213101,,,0,
4051,4051,7th & Euclid NE,,33.775418,-118.148961,,,0,
4052,4052,Carson & Evonda SE,,33.831706,-118.219516,,,0,
4053,4053,Clark & Mayfair Park SE,,33.855922,-118.133716,,,0,
4054,4054,PCH & Clark NE,,33.784351,-118.134517,,,0,
4055,4055,PCH & Park SE,,33.785886,-118.136591,,,0,
4056,4056,Woodruff & Allington SE,,33.865166,-118.11708,,,0,
4057,4057,Carson & Bellflower NW,,33.832406,-118.125757,,,0,
4058,4058,Carson & Clark SE,,33.832198,-118.133395,,,0,
4059,4059,Los Coyotes & Ximeno SW,,33.791426,-118.140535,,,0,
4060,4060,Kilroy Airport Way & Devry NW,,33.808831,-118.146495,,,0,
4062,4062,Del Amo & Clark NW,,33.847183,-118.134325,,,0,
4063,4063,Del Amo & Graywood NW,,33.847208,-118.138708,,,0,
4064,4064,Lakewood & Spring SW,,33.812129,-118.1395,,,0,
4065,4065,Kilroy Airport Way & Devry SW,,33.808727,-118.146288,,,0,
4066,4066,Kilroy Airport Way & Redondo NE,,33.807464,-118.149995,,,0,
4067,4067,Los Coyotes & Outer Circle NE,,33.791057,-118.140666,,,0,
4068,4068,1st & Long Beach Blvd NE,,33.768162,-118.189222,,,0,
4071,4071,Ocean & Pine SE,,33.76688,-118.191995,,,0,
4072,4072,Bixby Village & S Greenway E,,33.771762,-118.114423,,,0,
4073,4073,Channel & Bixby Village NE,,33.774195,-118.118845,,,0,
4074,4074,Loynes & Bixby Village NW,,33.768169,-118.114194,,,0,
4077,4077,PCH & 2nd SW,,33.757577,-118.110915,,,0,
4078,4078,PCH & Studebaker SW,,33.753282,-118.106973,,,0,
4079,4079,PCH & 1st SW,,33.748947,-118.10607,,,0,
4080,4080,Palo Verde & Belen SW,,33.80885,-118.107979,,,0,
4081,4081,Del Amo & Lakewood SE,,33.846984,-118.142019,,,0,
4082,4082,Del Amo & Graywood SE,,33.846971,-118.137886,,,0,
4083,4083,Del Amo & San Gabriel River NW,,33.84601,-118.099606,,,0,
4084,4084,Carson & Evonda NE,,33.831822,-118.219214,,,0,
4085,4085,South & Studebaker SW,,33.858284,-118.100029,,,0,
4086,4086,PCH & Ximeno SE,,33.78747,-118.139294,,,0,
4087,4087,Palo Verde & Garetti School E,,33.82861,-118.107669,,,0,
4088,4088,Palo Verde & Eberle NE,,33.849759,-118.108226,,,0,
4090,4090,Studebaker & Wardlow SW,,33.818563,-118.099202,,,0,
4091,4091,Studebaker & Rosebay SW,,33.813749,-118.099236,,,0,
4092,4092,Studebaker & Spring SW,,33.810114,-118.099316,,,0,
4093,4093,Studebaker & Barrios SW,,33.806615,-118.099313,,,0,
4094,4094,Studebaker & Willow SW,,33.802829,-118.099354,,,0,
4095,4095,Studebaker & Los Arcos SW,,33.799726,-118.099337,,,0,
4097,4097,Studebaker & Stearns SW,,33.795311,-118.099391,,,0,
4098,4098,PCH & Ximeno NE,,33.787549,-118.138923,,,0,
4099,4099,Queen Mary / Cruise Terminal,,33.752172,-118.191636,,,0,
4100,4100,Studebaker & 183rd NE,,33.86599,-118.099526,,,0,
4101,4101,Studebaker & Artesia NE,,33.873269,-118.099571,,,0,
4102,4102,Studebaker & Spinnaker SE,,33.878124,-118.099637,,,0,
4103,4103,Studebaker & 166th NE,,33.880581,-118.099667,,,0,
4104,4104,Studebaker & Falcon NE,,33.884294,-118.099692,,,0,
4105,4105,Studebaker & Alondra NE,,33.888239,-118.099759,,,0,
4106,4106,Studebaker & Barnwall NE,,33.891441,-118.099795,,,0,
4107,4107,Studebaker & Excelsior NE,,33.895095,-118.099827,,,0,
4108,4108,Studebaker & Mapledale NE,,33.898708,-118.099861,,,0,
4109,4109,Studebaker & Rosecrans NE,,33.902539,-118.09988,,,0,
4110,4110,Studebaker & Leffingwell SE,,33.906486,-118.099405,,,0,
4111,4111,Studebaker & Foster NE,,33.910107,-118.099074,,,0,
4112,4112,Studebaker & Angell NE,,33.912579,-118.09909,,,0,
4113,4113,Norwalk Station Bay 11,,33.912703,-118.103845,,,0,11
4114,4114,Studebaker & Angell SW,,33.912563,-118.099402,,,0,
4115,4115,Studebaker & Foster SW,,33.909575,-118.099393,,,0,
4116,4116,Studebaker & Leffingwell SW,,33.906393,-118.099813,,,0,
4117,4117,Studebaker & Rosecrans SW,,33.90181,-118.10017,,,0,
4118,4118,Studebaker & Mapledale SW,,33.898268,-118.100156,,,0,
4119,4119,Studebaker & Excelsior NW,,33.895053,-118.100119,,,0,
4120,4120,Studebaker & Barnwall NW,,33.891368,-118.100085,,,0,
4121,4121,Studebaker & Alondra SW,,33.887304,-118.100059,,,0,
4122,4122,Studebaker & Melissa SW,,33.883683,-118.099987,,,0,
4123,4123,Studebaker & 166th NW,,33.880512,-118.09998,,,0,
4124,4124,Studebaker & Artesia SW,,33.872551,-118.099928,,,0,
4125,4125,Studebaker & Keynote SW,,33.822772,-118.099207,,,0,
4126,4126,Wardlow Station Bay 3,,33.820289,-118.19676,,,0,3
4127,4127,Wardlow Station Bay 1,,33.819555,-118.196236,,,0,1
4128,4128,Wardlow Station Bay 2,,33.81986,-118.196454,,,0,2
4129,4129,Del Amo Station Bay 2,,33.848432,-118.211371,,,0,2
4130,4130,Del Amo Station Bay 3,,33.848272,-118.211294,,,0,3
4131,4131,Del Amo Station Bay 4,,33.84813,-118.211233,,,0,4
4132,4132,Del Amo Station Bay 5,,33.847982,-118.211171,,,0,5
4133,4133,Artesia & Butler NW,,33.874429,-118.197375,,,0,
4134,4134,Artesia & Atlantic NW,,33.874519,-118.186574,,,0,
4135,4135,Artesia Station Bay 3,,33.875786,-118.222748,,,0,3
4136,4136,Artesia Station Bay 2,,33.87567,-118.222688,,,0,2
4137,4137,Golden Shore & RV Park SE,,33.76416,-118.20184,,,0,
4139,4139,Golden Shore & RV Park W,,33.76455,-118.201907,,,0,
4142,4142,Pine & Convention Ctr SW,,33.764725,-118.192511,,,0,
4145,4145,Anaheim & Pacific NE,,33.78268,-118.194108,,,0,
4146,4146,Woodruff & Alondra SW,,33.888709,-118.117518,,,0,
4147,4147,Anaheim & Pacific SE,,33.782538,-118.193445,,,0,
5247,5247,Long Beach Airport & Donald Douglas Dr NB,,33.818041,-118.140238,,,0,
5250,5250,UCLA Gateway Plaza,,34.069347,-118.44526,,,0,
5251,5251,WIllow Station & 27th St,,33.80628,-118.191789,,,0,
5252,5252,Medical Plaza W,,34.065334,-118.445452,,,0,
5253,5253,Kinross S,,34.059526,-118.447589,,,0,
5254,5254,Kinross N,,34.059558,-118.447726,,,0,
5255,5255,Medical Plaza E,,34.065196,-118.445195,,,0,
8481,8481,Alondra & Paramount,,33.889283,-118.160659,,,0,
8512,8512,Spring & Studebaker SE,,33.810366,-118.098896,,,0,
8513,8513,Spring & EL Dorado Park SE,,33.810238,-118.085091,,,0,
8514,8514,Spring & Claremore NW,,33.810489,-118.078408,,,0,
8515,8515,Los Alamitos & Cerritos NE,,33.810622,-118.071734,,,0,
8516,8516,Los Alamitos & Cerritos NW,,33.810465,-118.072111,,,0,
8517,8517,Spring & Claremore SE,,33.810282,-118.077947,,,0,
8518,8518,Spring & El Dorado Park NW,,33.810592,-118.085834,,,0,
